,business_id,name,city,state,postal_code,latitude,longitude,stars,review_count,is_open,categories
0,tCbdrRPZA0oiIYSmHG3J0w,Flying Elephants at PDX,Portland,OR,97218,45.5889058992,-122.5933307507,4.0,126,1,"Salad, Soup, Sandwiches, Delis, Restaurants, Cafes, Vegetarian"
1,jx91IMdGOmLOo8h_F9z39g,Cleary's Restaurant & Spirits,Portland,OR,97230,45.5264727,-122.535323,3.5,19,1,"Nightlife, Sandwiches, Seafood, Restaurants"
2,5PsApTz-WqhF_-8mfqGtGw,Cafe Yumm!,Portland,OR,97204,45.5184501881,-122.6757229865,3.5,158,1,"Vegetarian, Vegan, Sandwiches, Soup, American (New), Fast Food, Restaurants, Wraps, American (Traditional)"
3,Npm0cjoyWwyV13OULL9qOA,Nana's Ice Cream Scoop Shop,Portland,OR,97211,45.5609209,-122.6624474,4.0,5,1,"Food, Ice Cream & Frozen Yogurt"
4,HMXiuCxHDXqMH1hBpaHd9g,Whole Time Chicken,Portland,OR,97215,45.5162412,-122.5975269,5.0,7,0,"Food Stands, Restaurants, Sandwiches"
5,ZA3u0Nu5V6TqkcYh8U0zdg,B Street Coffee House,Portland,OR,97210,45.5230736,-122.6962064,4.5,131,0,"Restaurants, Food, Sandwiches, Breakfast & Brunch, Gluten-Free, Coffee & Tea, Bagels"
6,CBkF_Ub_nxOhOEN3Zbo_RQ,Plaid Pantry,Portland,OR,97217,45.5624304,-122.687739,4.0,10,1,"Convenience Stores, Food"
7,aTAe3uMYBEwU0FbTMFEI5g,Urban Pantry,Portland,OR,97209,45.5299395,-122.6829322,3.5,26,1,"Do-It-Yourself Food, Restaurants, American (Traditional), Active Life, Grocery, Food, Local Flavor, Specialty Food, Kids Activities, Cafes, Delis"
8,52f_ztOVodIoV43Qt-R4rA,Taqueria So Mexican,Portland,OR,97230,45.5131986231,-122.6763805441,4.0,28,0,"Restaurants, Mexican, Food Trucks, Food, Food Stands"
9,BGLqNLxH8p3dEoiLVLRq1A,Fukami Sushiya,Portland,OR,97215,45.516382,-122.618593,4.0,17,0,"Sushi Bars, Restaurants"
10,r_sOAVfNPaXrpjznZpuxeg,Papi Chulo's,Portland,OR,97209,45.5274187,-122.6844472,4.0,180,1,"Mexican, Restaurants, Tacos, Breakfast & Brunch"
11,UKIBQrRbY_jo52yHWcZE8g,Noah Halal,Portland,OR,97204,45.5210363,-122.6766335,4.0,72,0,"Mediterranean, Food, Restaurants, Food Trucks"
12,INRbuzhBV5b07-Hd2wp8CA,Peet's Coffee,Portland,OR,97205,45.5205512296,-122.6787543126,3.5,73,0,"Coffee & Tea, Restaurants, Food"
13,7IPhANX229XHo6I5w_BzxA,Lotus Kitchen,Portland,OR,97216,45.522063,-122.579848,4.5,21,1,"Delis, Restaurants, Caterers, Event Planning & Services, Vietnamese"
14,GyglPdfJM89if_5XSBIN7Q,Never Coffee,Portland,OR,97205,45.5214333486,-122.683917135,4.0,49,1,"Restaurants, Cafes, Food, Coffee & Tea"
15,4f1MpunVzcEZ2v4HNQa2uw,Lai Thai Food Cart,Portland,OR,97201,45.5130803159,-122.6762986556,4.0,20,0,"Food Stands, Thai, Soup, Restaurants"
16,lyhNDfX8UatlRO5H3Kfccg,Caspian Kabob,Portland,OR,97217,45.554568,-122.675674,5.0,187,1,"Restaurants, Food Trucks, Food Stands, Food, Middle Eastern, Persian/Iranian, Mediterranean"
17,DgJSDdnPOvLCCyuryIh-3Q,Matt & Memere's,Portland,OR,97202,45.496485,-122.626764,4.5,34,1,"Restaurants, Cajun/Creole, Food, Southern, Food Trucks, Donuts, Seafood"
18,GXoyghOLMeUOTwbhexXlOg,Kings Deli,Portland,OR,97211,45.5773886,-122.6430574,3.0,15,1,"Delis, Restaurants"
19,1bGOJiroc8fvVJRxKMAjBg,Safeway,Portland,OR,97230,45.524464,-122.538443,2.0,33,0,"Food, Grocery, Bakeries, Shopping, Drugstores"
20,fMZRia9Jq8CXgP3Wna6_gg,Cha Ba Thai,Portland,OR,97213,45.5425541,-122.6033063,4.0,332,1,"Restaurants, Thai"
21,A2EQ-c_AaRoTmRGfO-HByQ,HOTLIPS Pizza - Hawthorne,Portland,OR,97214,45.512154,-122.6431199,3.5,177,1,"Food, Beer, Wine & Spirits, Restaurants, Fast Food, Pizza, Gluten-Free"
22,1iU41Mf9FGZACZZmdaemaw,Headwaters,Portland,OR,97205,45.5172228,-122.6810692,3.0,307,0,"Bars, Wine Bars, Food, Nightlife, Restaurants, Seafood, Desserts"
23,3thW8u8cgdCLKgYhKMhXBw,A Thai Basil,Portland,OR,97205,45.5205359903,-122.6816037297,3.0,41,0,"Food Stands, Food, Thai, Food Trucks, Bubble Tea, Restaurants"
24,Dz3GF5EvC3kzM-Jf_nLCDw,McDonald's,Portland,OR,97220,45.526686131,-122.5382611156,1.5,37,1,"Coffee & Tea, Restaurants, Fast Food, Burgers, Food"
25,LzqmHdwLkAsd4asB0dc5_A,Bamboo Izakaya,Portland,OR,97211,45.5591054,-122.6512761,4.0,42,0,"Pubs, Restaurants, Nightlife, Breakfast & Brunch, Bars, Japanese, Cocktail Bars"
26,E4ejoHJHIOvVhkca3kWRuQ,McDonald's,Portland,OR,97202,45.4977464697,-122.6360719,2.0,77,1,"Food, Fast Food, Restaurants, Coffee & Tea, Burgers"
27,SRHQEF2-VPS_dl1_ZDH0gA,Laughing Planet,Portland,OR,97255,45.4789575,-122.6202643,3.5,155,1,"Juice Bars & Smoothies, Cafes, Mexican, Vegetarian, Restaurants, American (New), Food, Vegan, Salad"
28,cl8_roQGXbifAdRyFlk03g,Pizza Oasis,Portland,OR,97210,45.5234782,-122.6972354,4.0,87,0,"Pizza, Restaurants"
29,sP1TtjP1pdCY03-K3ehVkA,Plumper Pumpkin Patch and Tree Farm,Portland,OR,97231,45.607328,-122.870514,3.5,44,1,"Home Services, Farms, Specialty Food, Local Flavor, Food, Plumbing, Fruits & Veggies, Arts & Entertainment, Attraction Farms, Home Decor, Pumpkin Patches, Home & Garden, Christmas Trees, Farmers Market, Shopping"
30,U4sddbqRBCS4Km-B7y3vBA,Jolly Roger At John's Landing,Portland,OR,97239,45.4827956,-122.6760019,4.0,60,1,"Bars, Restaurants, American (New), American (Traditional), Sports Bars, Nightlife"
31,RkQr7J48WkYqfLGwflGbTg,DB Dessert Company,Portland,OR,97213,45.5263002,-122.5928822,4.5,14,1,"Bakeries, Custom Cakes, Desserts, Food"
32,GvLnnALFOCdxdUrUCSfs-Q,Portland Seafood Company,Portland,OR,97216,45.517338,-122.563968,3.5,280,0,"Restaurants, Seafood, American (Traditional)"
33,sJNMic9YAN7rSy8RnHZ0qw,Moon Dream,Portland,OR,97220,45.5459972,-122.5785237,4.5,9,1,"American (New), Nightlife, Bars, Karaoke, Restaurants"
34,w4h0Bq9-CTznhi5tudupaw,Imbibe Restaurant & Lounge,Portland,OR,97214,45.512142,-122.6430726,3.0,41,0,"Nightlife, Music Venues, Vegetarian, Arts & Entertainment, Lounges, Restaurants, Mass Media, Print Media, Bars"
35,iBl91YcJwdTG6zpTJaWhNA,Ole Cafe,Portland,OR,97201,45.510138,-122.677199,3.0,10,1,"Cafes, Restaurants, Delis, Sandwiches"
36,tjCT7EyHjDxnB5NCjxCnRg,Bar Rione,Portland,OR,97209,45.5289822,-122.6831063,4.5,35,1,"Bars, Food, Restaurants, Beer, Wine & Spirits, Nightlife, Italian, Wine Bars, Cocktail Bars"
37,QLavaVgcy8u0gpYbSPLEqw,Taco Bell,Portland,OR,97229,45.5247072,-122.8155379,2.0,48,1,"Restaurants, Fast Food, Breakfast & Brunch, Tacos, Mexican, Tex-Mex"
38,uMPGs_Jc1fBoxeGrCKqRiw,Panda Express,Portland,OR,97230,45.533263,-122.5373376,2.0,27,1,"Chinese, Restaurants, Fast Food"
39,_6UaDhBtrc1iCwwUMmUXVA,Mac and Tot Box,Portland,OR,97266,45.4936755,-122.5793608,4.0,7,1,"Comfort Food, Food, Italian, Food Trucks, Burgers, Restaurants"
40,_DZLlGP0YDHItOx6nqQbng,Java Jazz,Portland,OR,97266,45.4774062748,-122.5597039258,3.0,7,0,"Food, Coffee & Tea"
41,W4S9PIWTfRlW2lwPPunFvg,f&b cafe and catering,Portland,OR,97210,45.5375748,-122.7083825,2.5,11,0,"Cafes, American (Traditional), Restaurants"
42,bgiYHi1XjnOe_eZtcRq55g,Matt's BBQ Tacos,Portland,OR,97214,45.512267,-122.6323559,4.5,112,1,"Restaurants, Mexican, Barbeque, Food, Tacos, Food Trucks"
43,lJUfH-PUJTpLL_H_mU2NGg,Barbur Liquor Store,Portland,OR,97219,45.4541436,-122.7204587,3.5,35,1,"Tobacco Shops, Beer, Wine & Spirits, Shopping, Food"
44,V0rxT9YujJKLCcDHapaeyA,Picnic PDX,Portland,OR,97210,45.53217,-122.699013,4.5,44,0,"Cocktail Bars, Restaurants, American (New), Salad, Nightlife, Bars, Sandwiches"
45,kCvz5tJm9qz4HzKNwzanIg,Old Market Pub & Brewery,Portland,OR,97223,45.4659560323,-122.7480822802,3.0,325,1,"Sports Bars, Breweries, Nightlife, Pubs, Food, Bars"
46,9pMr0WgcKdDf6DxyNIIsaQ,Boyds Coffee,Portland,OR,97209,45.5260759,-122.6819204,3.5,14,0,"Coffee & Tea, Restaurants, Food"
47,z9iqrmwKkaJl429Mrfs3Yg,Noodles & Company,Portland,OR,97209,45.5238168,-122.6808522,3.5,141,0,"Asian Fusion, Mediterranean, Comfort Food, American (Traditional), Italian, Noodles, Restaurants"
48,mQ40Ai6OEPkR90GguM9ELQ,Mandi House,Portland,OR,97217,45.5627869,-122.6755114,3.5,72,0,"Restaurants, Mediterranean, Halal, Middle Eastern"
49,sCeUEBoPePy5KTf6iTAGqA,Outback Steakhouse,Portland,OR,97266,45.4544583,-122.5787463,2.5,150,0,"Steakhouses, Restaurants"
50,Gkcx90kCYgWPckzA4GI8yQ,Motivasi,Portland,OR,97218,45.5556854,-122.6202494,4.0,53,0,"Food, Coffee & Tea"
51,VpDVMno9lQFT9fmz2pWMjQ,Wildflower Baking,Portland,OR,97209,45.5265522,-122.688183,4.5,6,1,"Desserts, Food, American (New), Restaurants, Bakeries, Breakfast & Brunch"
52,zfasUshwU5NhibqKVQ7FIw,Chopsticks,Portland,OR,97214,45.5119301,-122.6263452,3.0,36,0,"Chinese, Vietnamese, Restaurants, Asian Fusion, Thai"
53,Ie3LnWkmTyUf6zL7tOVP2g,Gonzo At Bar XV,Portland,OR,97204,45.5228622485,-122.6724387118,4.5,75,0,"Mediterranean, Food, Bars, Vegetarian, Food Trucks, Gluten-Free, Nightlife, Middle Eastern, Restaurants"
54,XPuDaxtlL9FoTWsmoGo4Ew,Pollo Bravo,Portland,OR,97205,45.5211215191,-122.6835216,4.5,25,0,"Tapas Bars, Restaurants"
55,I8LnJbP17NHjXx3910cNvw,Taqueria Luna,Portland,OR,97202,45.4672699,-122.6531317,4.5,21,1,"Food Trucks, Food, Restaurants, Mexican"
56,J4dYSpqy6wxB2c8XNgsIJw,Taqueria Antojitos Yucateco,Portland,OR,97216,45.5192806032,-122.5585593831,4.5,65,1,"Restaurants, Food Stands, Mexican"
57,wZ46RfHIY6fnfqjMe6y7Eg,Kabob Kabob Persian Food,Portland,OR,97204,45.5198475,-122.6742938,5.0,6,1,"Restaurants, Food Stands, Kebab, Persian/Iranian, Fast Food"
58,E5KQwzqPogBCoGFx-n1T6Q,Devaki's Deli,Portland,OR,97230,45.558765,-122.53718,3.5,11,1,"Delis, Sandwiches, Food, Burgers, Restaurants"
59,LpBBIkjgmS48nWOPQGb6Xw,Certo,Portland,OR,97211,45.5592431,-122.648928,4.5,9,0,"Food, Italian, Food Trucks, Restaurants, Food Stands"
60,Agq4zoNLSIpT1_ZJbnrvww,Donut Palace,Portland,OR,97229,45.5429252,-122.8662879,4.5,173,1,"Food, Donuts"
61,Spvl69Qy_YfxhJ0HY3d-_w,Nutshell,Portland,OR,97227,45.5503455,-122.6665844,4.0,26,0,"Vegetarian, Restaurants, Vegan"
62,p0Sr-YXB4R1XKCSDUU1XZA,The Human Bean,Portland,OR,97213,45.539263,-122.6133463,4.0,43,1,"Food, Coffee & Tea"
63,Ak6ak8lb7qLlg0K4qdwAdg,Boxxes Video Bar,Portland,OR,97205,45.5224014,-122.6818992,3.5,17,0,"Restaurants, Seafood, Gay Bars, Bars, Nightlife"
64,iHX7opPMl-Cs7cI91YzmMw,We Be Weiners,Portland,OR,97206,45.484834,-122.598102,3.0,9,0,"Restaurants, Hot Dogs, American (Traditional), Food Stands, Food"
65,BN6qe6SgqO7cqMT5r8TRcw,Chan's Garden,Portland,OR,97267,45.4165053,-122.5928369,2.0,14,1,"Restaurants, Shopping, Chinese, Home & Garden, Nurseries & Gardening"
66,-M3ym49CjhILGvWWYW-rcg,Bitter Rose Coffee Bar,Portland,OR,97212,45.5376580617,-122.6213366667,4.5,22,1,"Coffee Roasteries, Coffee & Tea, Food"
67,2zDmhJcoHc1yQ7Vwgimk0g,Teote Outpost,Portland,OR,97204,45.5215004,-122.6724068,3.5,21,1,"Restaurants, Latin American"
68,jLo_xMHMSWSOba9TEseFKA,Your Inn Tavern,Portland,OR,97203,45.5937668,-122.7617864,4.0,40,1,"Bars, American (New), Restaurants, Nightlife"
69,5Vrg_1JXv0B6pvkdLVxvnw,Kkoki Korean BBQ - Portland,Portland,OR,97206,45.4990766,-122.5802742,4.0,86,1,"Barbeque, Korean, Restaurants"
70,BVaNoKbZx7MBjIYWQLtDmA,Cheryl’s on 12th,Portland,OR,97209,45.521998,-122.6830928,4.0,34,1,"Event Planning & Services, Wedding Planning, Caterers, Food, Food Delivery Services"
71,q4BxerFLw_MdNqLr2pMJvg,7-Eleven,Portland,OR,97203,45.5849388539,-122.7298083901,2.5,7,1,"Coffee & Tea, Convenience Stores, Food"
72,6YYu1SFIgFzfOjxsWyGbFw,Pizza Hut,Portland,OR,97219,45.4717738,-122.6858939,2.0,31,0,"Pizza, Restaurants, Italian, Chicken Wings"
73,8cKyXs9WLwajEBlWk_ZhWw,Holy Smokes Righteous Eats,Portland,OR,97221,45.4853202,-122.7178121,4.0,32,1,"Kosher, Food, Halal, Food Trucks, Restaurants, Barbeque"
74,sPAGskLJD0pSDl_QotGk3A,Reo's Ribs,Portland,OR,97266,45.495806,-122.548422,2.5,54,0,"American (Traditional), Soul Food, Southern, Barbeque, Comfort Food, Restaurants"
75,AXFwfcvUWwBWY-1AjJtOpg,Pizza Nostra,Portland,OR,97213,45.5483779653,-122.6131725311,3.5,143,1,"Pizza, Salad, Italian, Restaurants, Food, Food Delivery Services"
76,QwxkPvSZtyIb0hLBwhBzAg,Safeway,Portland,OR,97229,45.5279674,-122.8144201,2.5,52,1,"Grocery, Delis, Drugstores, Restaurants, Food, Bakeries, Shopping"
77,9YuN48Y2S-E70Oos9yHSMw,Bhuna,Portland,OR,97209,45.5278598478,-122.694169879,4.0,131,1,"Restaurants, Indian, Wine Bars, Nightlife, Event Planning & Services, Bars, Vegetarian, Cocktail Bars, Venues & Event Spaces, Vegan"
78,83_2zoVR2YmUse288HsK8g,The Stacks Coffeehouse,Portland,OR,97217,45.5629371,-122.6862232,4.5,37,1,"Breakfast & Brunch, Food, Restaurants, Coffee & Tea"
79,PUEIDJQmT4ubVNAIpkz3Lg,GP Kitchen,Portland,OR,97209,45.5263018,-122.6815055,4.5,10,0,"Salad, Restaurants, Delis, Cafes, American (Traditional)"
80,WRHUIR-ik25cA445KC7-3Q,Tabor Hill Cafe,Portland,OR,97214,45.51196,-122.624594,3.5,44,0,"American (Traditional), Restaurants"
81,U5a-jKSjttY6w_yjyJP4QQ,Fonda Rosa,Portland,OR,97232,45.5237001074,-122.6371273784,4.0,153,0,"Restaurants, Mexican"
82,2bgKzSVvnUqZtQSuRVULpQ,Pacific Grille,Portland,OR,97220,45.5743094,-122.5793881,2.0,17,1,"Restaurants, American (Traditional)"
83,wD1KxVyVQ5TsF1ReaMBHYg,TNT Grillin,Portland,OR,97211,45.5629014,-122.6589565,4.0,5,0,"Sandwiches, Food Trucks, Burgers, Food Stands, Restaurants, Food"
84,EXU9J5LCGb-CTs8sTOt-Eg,Burnside Brewing,Portland,OR,97214,45.5233947,-122.6583722,3.5,538,0,"Pubs, Bars, Food, American (New), Nightlife, Breakfast & Brunch, Breweries, Restaurants"
85,GXR2Jv645UiQr971MZyHWA,Basilisk,Portland,OR,97232,45.5290499433,-122.638252,4.5,497,1,"American (New), Chicken Shop, Restaurants"
86,67WxRl0uNZMPO573sBOffw,Woodblock Chocolate,Portland,OR,97212,45.5352945,-122.648606,5.0,33,1,"Food, Chocolatiers & Shops, Specialty Food"
87,npuvee4nvr0Pw7iNQxUzGg,Subway,Portland,OR,97206,45.4961907591,-122.6093193826,2.5,21,1,"Sandwiches, Restaurants, Fast Food"
88,-ehH_g5kTc1CSzydc6apOw,Over the Top,Portland,OR,97206,45.5053663,-122.5998345,4.5,22,0,"Restaurants, Food Stands, Burgers"
89,7qlaP32B8JPEJNb9pHGPdQ,Boxer Ramen,Portland,OR,97202,45.4737835754,-122.649564743,4.0,42,0,"Ramen, Japanese, Restaurants"
90,dXhuCvyz5nnaboNzp2KLiw,Reverend Nat's Hard Cider Taproom,Portland,OR,97212,45.536108527,-122.6637941119,4.5,112,1,"Beer, Wine & Spirits, Beer Bar, Bars, Food, Nightlife, Cideries"
91,GwOTbgMquAOTZPzOc_pdiA,Auntie Anne's,Portland,OR,97223,45.4494683,-122.7833414,2.0,12,1,"Pretzels, Food, Fast Food, Restaurants, Bakeries"
92,k3FzKinhC-dAGdhJGSXl_w,Khao Moo Dang,Portland,OR,97214,45.512252,-122.6328667,4.5,67,1,"Noodles, Restaurants, Thai, Comfort Food"
93,av9dVn6dKZk6zzWC3LQeAg,Mikkeller Brewery Portland Pop Up,Portland,OR,97214,45.5233948018,-122.6583721116,4.5,36,0,"Nightlife, Brewpubs, Breweries, Cocktail Bars, Bars, Food"
94,aCbbE21-tTrNj_KKvVIjgg,Dublin Pub,Portland,OR,97225,45.4868189,-122.747285,3.0,91,1,"Arts & Entertainment, Music Venues, Bars, Food, Pubs, Beer, Wine & Spirits, Restaurants, Irish, Nightlife"
95,vqjevk-nchiJveRlIw2uVQ,PDX Cookie,Portland,OR,97215,45.519284,-122.5819354,4.0,19,1,"Bakeries, Food, Desserts"
96,BTphruTjK0ECkGIFEv1VYg,La Costita,Portland,OR,97219,45.4716244201,-122.6859033109,3.0,95,0,"Nightlife, Mexican, Lounges, Bars, Restaurants"
97,FYQHebkSHB0DE3xbn3f7Yg,Kruger's Farm Market,Portland,OR,97231,45.647771,-122.823645,3.5,99,0,"Specialty Food, Arts & Entertainment, Farmers Market, Home & Garden, Food, Farms, Pick Your Own Farms, Pumpkin Patches, Shopping, Fruits & Veggies"
98,W6BYNq6t9aWB_noAD31fmQ,Mint 820,Portland,OR,97227,45.5409362,-122.6750666,3.5,268,0,"Bars, American (New), Nightlife, Lounges, Restaurants, Cocktail Bars"
99,i8yp39dEJ43Y2JroMXAy5w,Papa Lee's Kitchen,Portland,OR,97202,45.4642245,-122.6544946,5.0,42,1,"Food Trucks, Food, Restaurants, Food Stands, Street Vendors"
100,vutqSSGHZUxPKhfJWdckug,South,Portland,OR,97214,45.519926,-122.656011,5.0,49,1,"Food Trucks, Restaurants, Southern, Food"
101,XR_pXsexZveacolNMbyu7Q,Café Nordstrom,Portland,OR,97205,45.519155,-122.6803131,4.0,8,1,"Cafes, Diners, American (New), Restaurants"
102,083EkP5QPXRzsjQlHRP9NQ,HOTLIPS Pizza - PSU,Portland,OR,97201,45.5102042,-122.6834488,4.0,194,0,"Local Flavor, Fast Food, Gluten-Free, Pizza, Restaurants"
103,J5HZLevdqG_iTZ2egbL64A,The Wooden Chicken,Portland,OR,97230,45.5561028,-122.5335364,3.5,110,1,"Bars, Nightlife, American (New), Restaurants, Pubs"
104,jl319aAtsRKAueSPdwr61A,St Johns Coffee Roasters,Portland,OR,97203,45.5892997,-122.754006,4.5,97,1,"Coffee & Tea, Restaurants, Sandwiches, Food, Coffee Roasteries, Internet Cafes, Bagels"
105,tJn6TiHqJyVntY9d0MBpJQ,Auntie Anne's,Portland,OR,97266,45.435855,-122.572803,1.5,21,1,"Pretzels, Fast Food, Food, Restaurants, Bakeries"
106,URtPw-ehpESJmTc2js6Iog,Skipper's Seafood'n Chowder House,Portland,OR,97266,45.4443465,-122.5792748,3.0,11,0,"Seafood, Restaurants"
107,Hwj4O3Fzl9VAUcvfaxC5lg,Gyro Grill,Portland,OR,97222,45.4623912,-122.6295169,4.5,67,1,"Middle Eastern, Halal, Restaurants, Mediterranean"
108,xo8r7Bx0HaEmHSZ9e68VpA,Signal Station Pizza,Portland,OR,97203,45.5891878,-122.7523311,4.0,138,1,"Pizza, Restaurants"
109,cvehjqIA_yjGOKEaty_2RA,Checkerboard Pizza,Portland,OR,97204,45.5214549602,-122.6723356918,4.0,60,1,"Pizza, Restaurants"
110,y-Sq3xsXXjugqHgmP2IMzA,Hongs Restaurant Equipment & Supplies,Portland,OR,97266,45.483826,-122.577451,4.0,7,1,"Kitchen & Bath, Restaurant Supplies, Home & Garden, Restaurants, Professional Services, Wholesale Stores, Wholesalers, Shopping"
111,MaTpuOHDJg7aBrh7HhSNcQ,Savory Spice Shop,Portland,OR,97202,45.4677236,-122.6531231,4.5,56,1,"Food, Herbs & Spices, Specialty Food"
112,fCBR2YYEEZ1zojjz6Z_dVA,Biscuits Cafe,Portland,OR,97267,45.3956555,-122.6159695,3.5,20,1,"American (Traditional), Cafes, Breakfast & Brunch, Restaurants"
113,fhz8ugDFQWOx8l0Gh0-edQ,Urban Garlic,Portland,OR,,45.52454,-122.67178,3.5,7,0,"Food, Food Trucks, Sandwiches, Food Stands, Restaurants"
114,8ehEKnoY-ZFjRfM1q0Ybhg,Moda Cars,Portland,OR,97230,45.5625589879,-122.5286962341,1.0,6,0,"Car Dealers, Automotive, Restaurants, Pizza"
115,6Uia5wMrQWwrQDadShJ5hw,Hungaricana,Portland,OR,97217,45.5626737,-122.6808516,4.0,7,0,"Food Stands, Food, Food Trucks, Restaurants, Hungarian, Street Vendors"
116,Bzr_UttqAk7sBb3TIn6Apw,Portland Florist Shop,Portland,OR,97220,45.5265248,-122.5406926,4.0,63,1,"Event Planning & Services, Specialty Food, Arts & Crafts, Flowers & Gifts, Chocolatiers & Shops, Cupcakes, Florists, Food, Beer, Wine & Spirits, Party Supplies, Shopping, Cards & Stationery, Gift Shops, Floral Designers"
117,9cWXsVWMFxRX4IMvtS6f0A,Knuckle Sandwich,Portland,OR,97214,45.5231622,-122.6437679,4.0,70,0,"Restaurants, Sandwiches"
118,ciNCcmkU-PHHp20xb3IkCA,Fat Cupcake,Portland,OR,97206,45.479262514,-122.5894919652,4.0,103,1,"Cupcakes, Desserts, Bakeries, Food"
119,iYgbJL8z-ywjW4SLx3VxDA,The Cakery,Portland,OR,97239,45.478394,-122.6943123,4.5,72,1,"Food, Shopping, Cupcakes, Bakeries, Desserts"
120,cnGw4jG2tbbGGd0jJCQCZw,Mud Coffee,Portland,OR,97213,45.5355099,-122.6207061,4.5,60,0,"Coffee & Tea, Juice Bars & Smoothies, Food"
121,jLB9gmZhawvSOWaR32xaIQ,Powell's Books on Hawthorne,Portland,OR,97214,45.5123021,-122.6253158,4.5,180,1,"Shopping, Newspapers & Magazines, Bookstores, Books, Mags, Music & Video, Food, Used Bookstore, Coffee & Tea"
122,eHDfBK2pqGfyXMvq3gIgZA,Portland Steak & Chophouse,Portland,OR,97204,45.5221926,-122.673869,3.5,9,0,"Restaurants, Steakhouses"
123,g-iLpj7YL0juWfwCFubQkQ,Sanborn's,Portland,OR,97202,45.5001642,-122.6539839,4.0,346,0,"Breakfast & Brunch, Restaurants"
124,VGxHDM-0Ic6E5CrXl0qMfQ,Oaks Bottom Public House,Portland,OR,97202,45.4738802,-122.6494217,3.5,217,1,"Salad, Restaurants, Bars, Nightlife, Beverage Store, Soup, American (Traditional), Burgers, Food, Breweries, Pubs, Beer, Wine & Spirits, Sandwiches"
125,REJjkCz0JYQCVzsn2MjTDg,Bunk,Portland,OR,97204,45.522186849,-122.6770756159,4.0,203,0,"Sandwiches, Restaurants, Nightlife, Bars, Breakfast & Brunch"
126,kGmMiW1qCoJ95-5Y9Vk8kw,Simpatica Dining Hall,Portland,OR,97214,45.5213705,-122.6570574,4.5,247,0,"Diners, Event Planning & Services, Restaurants, American (New), American (Traditional), Beer, Wine & Spirits, Local Flavor, Italian, Caterers, Sandwiches, Food, Breakfast & Brunch"
127,d1CTYaYS_rwu4gHzFq-rYQ,Chu's Eatery,Portland,OR,97236,45.4924861,-122.4873637,3.5,71,1,"Chinese, Restaurants"
128,4CIymwx0FUsAw_OyxFixSQ,Thai Time Cafe,Portland,OR,97205,45.5203279,-122.6828747,4.0,73,1,"Restaurants, Thai"
129,jAgewawt7zZnV_OxRmcFBA,The Mocking Bird,Portland,OR,97213,45.540755305,-122.6093143185,4.5,49,1,"Food Trucks, Vegan, Gluten-Free, Burgers, Restaurants, Food"
130,W-cV5a52ML8SObGb7wAa7g,Maiphai Thai Cuisine,Portland,OR,97204,45.5209573,-122.6722422,4.0,104,0,"Nightlife, Bars, Thai, Food, Restaurants, Event Planning & Services, Beer, Wine & Spirits, Caterers"
131,7BAQHX9-qEZp4dqNU-J-lQ,Cha Cha Cha Catering,Portland,OR,97213,45.548502,-122.614423,4.5,7,1,"Caterers, Food Delivery Services, Wedding Planning, Event Planning & Services, Food"
132,no_UkSYx1j3qumlyqx48AQ,Miami Nice,Portland,OR,97232,45.5231822,-122.6437529,4.5,27,1,"Restaurants, Vegetarian, Cuban, Latin American, Vegan"
133,-VIjOvUHqEj9oKiSzV437A,Rescue Bagels,Portland,OR,97201,45.514428,-122.681189,4.0,23,0,"Breakfast & Brunch, Restaurants, Food, Food Stands, Bagels"
134,3HNq9KV8A7OBiqlWm8kZ8g,Swirl Frozen Yogurt,Portland,OR,97214,45.511922,-122.6278151,4.0,118,0,"Ice Cream & Frozen Yogurt, Food"
135,5nUjcxjMpcuMkxfH1YWlUg,Jalapeño Grill,Portland,OR,97233,45.5193294672,-122.5095614791,3.5,5,0,"American (Traditional), Mexican, Restaurants"
136,6yBizH8RnIYXk6vboLk3PA,Random Order Pie Bar,Portland,OR,97211,45.5589826754,-122.6466879457,4.0,514,0,"Bars, Restaurants, Coffee & Tea, Bakeries, Food, Desserts, Nightlife"
137,fuT9DHrcCySzBrNxMyJmkg,Chompers Growlers & Cantina Cantinflas,Portland,OR,97217,45.6031466,-122.6762632,4.0,10,1,"Mexican, Burgers, Food, Restaurants"
138,bfZ6JPiFPi1UQeosQ3fYrg,Taco Del Mar,Portland,OR,97207,45.5090477,-122.6809337,2.0,27,0,"Restaurants, Mexican"
139,mB__r6fV3HqhTU8CXhJXmQ,The Meadow,Portland,OR,97227,45.5499757,-122.6758754,4.5,106,1,"Cards & Stationery, Ethnic Food, Beer, Wine & Spirits, Shopping, Candy Stores, Arts & Crafts, Beauty & Spas, Florists, Cosmetics & Beauty Supply, Chocolatiers & Shops, Food, Specialty Food, Event Planning & Services, Herbs & Spices, Gift Shops, Flowers & Gifts"
140,3XrqDZs5Ay-AxFXw1RpUPg,The Trap Restaurant,Portland,OR,97206,45.4952678,-122.6092467,3.5,42,1,"Karaoke, American (Traditional), Dive Bars, Restaurants, Bars, Nightlife"
141,yuO6Zg53HhTWSwhRA2codA,Cha Cha Cha Taqueria,Portland,OR,97203,45.5819776,-122.7220669,3.0,211,1,"Restaurants, Mexican"
142,tKLDRIKRElI2wicdEKt_0w,Safeway,Portland,OR,97236,45.4962789,-122.5392749,2.5,27,1,"Food, Grocery"
143,pKW-5mKigIkzDW4kKnFgYQ,Il Piatto,Portland,OR,97214,45.5220507,-122.6416291,2.5,92,0,"Italian, Restaurants"
144,8o1ugackh3z4rxObT4Fl_g,Phat Cart,Portland,OR,97239,45.4787968,-122.6931126,4.0,35,1,"Food Stands, Restaurants, Asian Fusion"
145,b6r6LO3eE78IShRVYOPUQw,Blue Basil Thai Cuisine,Portland,OR,97214,45.51659,-122.6242609,4.0,32,0,"Restaurants, Thai"
146,wSx48gAcKe89yvEyqUx9WA,North Harbour Cafe,Portland,OR,97217,45.6048415,-122.6787581,3.5,6,1,"Food, Internet Cafes, Cafes, Restaurants"
147,uYNsFPZ0b9s5nXzKIezCUQ,Rain City Coffee,Portland,OR,97212,45.5376095,-122.6212403,3.5,11,0,"Sandwiches, Coffee & Tea, Restaurants, Food"
148,Fyif95FvHhNdPiRADSjECQ,Senate,Portland,OR,97204,45.5222443,-122.6724998,3.5,29,0,"Music Venues, Nightlife, Tapas/Small Plates, American (Traditional), Restaurants, Lounges, Breakfast & Brunch, Arts & Entertainment, Bars, Dance Clubs"
149,Vp74_BTv2Vq4r0Ccci50ng,Roux,Portland,OR,97255,45.562554,-122.685083,4.0,57,0,"Cajun/Creole, French, Restaurants"
150,p3Y1-l0Q4BrLz6OEu3EfGw,Tight Tacos,Portland,OR,97214,45.5142401314,-122.6596239382,4.5,142,0,"Breakfast & Brunch, Food Trucks, Tex-Mex, Food Stands, Tacos, Restaurants, Food, Mexican"
151,EK-y2zAkJIn8eFPNf24-yw,Cozmic Coffee,Portland,OR,97266,45.4831154,-122.577341,4.5,15,0,"Food, Coffee & Tea"
152,L9q__oKXL5YW29-Lsp5rbw,Southland Whiskey Kitchen,Portland,OR,97210,45.5330418,-122.6985210425,3.5,510,1,"Pubs, American (Traditional), Restaurants, Bars, Whiskey Bars, Barbeque, Nightlife, Southern"
153,MkykeeIir_t7iat5gb7liA,Umai Japanese Twist,Portland,OR,97239,45.4962094,-122.6725594,4.5,14,1,"Japanese, Asian Fusion, Japanese Curry, Restaurants"
154,O5jNjj55DNpMaU32As7azg,Popeyes Louisiana Kitchen,Portland,OR,97206,45.483279,-122.5793376,2.0,99,1,"Cajun/Creole, American (Traditional), Restaurants, Food, Fast Food, Desserts, Chicken Wings"
155,-liZt9xZNvnT0tHW0XTwQA,Kate's Ice Cream,Portland,OR,97232,45.5283148,-122.6386321,5.0,25,1,"Vegan, Food, Ice Cream & Frozen Yogurt, Restaurants"
156,BXyUfFjwdnR_T2XlDi-2cw,Lilikoi,Portland,OR,97217,45.5590997,-122.6546088,4.5,92,0,"Restaurants, Food Trucks, Hawaiian, Food, Asian Fusion"
157,DLGgb7AshSYzf5evS0BmqA,City Thai Portland,Portland,OR,97239,45.4786998,-122.6955135,3.5,233,1,"Restaurants, Chinese, Nightlife, Food, Thai, Sushi Bars, Bars"
158,KCR99-Y-pO6S8CRFbT3pwg,Moonlight Grill,Portland,OR,97219,45.4639955,-122.6843247,4.5,8,1,"Restaurants, Mediterranean"
159,eAPY_lYEo5FShEaeoXtQKA,Pizza Nostra,Portland,OR,97203,45.5895935,-122.755854,4.0,64,1,"Salad, Restaurants, Pizza"
160,yV2WYQZAUx24g83TjJloeA,Yan Zi Lou,Portland,OR,97266,45.5023567,-122.5784636,3.5,29,1,"Restaurants, Chinese"
161,32bsFaGx_nRU-7c7l4Cj2Q,Jin Jin Deli,Portland,OR,97216,45.5082178,-122.5784607,4.5,89,1,"Chinese, Restaurants, Japanese, Delis, Korean, Vietnamese"
162,FFC02nfYzACZoqObr6tP1g,Village Patisserie,Portland,OR,97202,45.464174,-122.654402,5.0,25,0,"Desserts, Food Trucks, Sandwiches, French, Bakeries, American (New), Restaurants, Food"
163,hE_-FKuNgf6mzq4j3isrXw,Mt. Hood Brewing Co. - Tilikum Station,Portland,OR,97214,45.5063784,-122.6615804,4.0,70,1,"Food, Breweries, Restaurants, Ice Cream & Frozen Yogurt, Pizza"
164,EDnEiL_57GeJsJdNw7XegA,Yum Zap,Portland,OR,97215,45.5165514,-122.6179155,4.0,21,0,"Street Vendors, Thai, Food Stands, Restaurants, Food"
165,v1MCZTDsWE8k7T-y1NjG3g,Chen's Express,Portland,OR,97213,45.540286073,-122.6094328612,3.5,52,1,"Food Trucks, Chinese, Street Vendors, Restaurants, Food"
166,fxu0XQrU4jNYRzHZUN2HZw,U-Licious Smokehouse & Grill,Portland,OR,97211,45.5629709,-122.6591093,2.5,45,1,"Smokehouse, Food, Barbeque, Restaurants"
167,aXOYRaSfkTKeUc7kUZpE7w,Natural Grocers,Portland,OR,97202,45.4981585,-122.620778,4.0,31,1,"Food, Organic Stores, Shopping, Grocery, Vitamins & Supplements"
168,R5WiBsnKIxG4A8vx5ZIa7g,Jacksons Food Stores #522,Portland,OR,97213,45.5261327,-122.6039122,4.0,5,1,"Grocery, Food"
169,SH_6Cce3BXfSbA97c0yK8g,Ranch PDX,Portland,OR,97209,45.529496,-122.694267,4.5,45,1,"Restaurants, Pizza"
170,NR-WUtI4OgACl95P14FBYQ,Greek Express,Portland,OR,97204,45.5169375,-122.6753653,5.0,56,0,"Falafel, Middle Eastern, Lebanese, Restaurants, Greek, Mediterranean"
171,3cJQN_dv1PysB7jw_PQozg,Bluehour,Portland,OR,97209,45.5248746993,-122.6840392,3.5,561,0,"French, Greek, Mediterranean, Lounges, Italian, Nightlife, Restaurants, Wine Bars, Bars"
172,BlWrgrq8nRVvdQKO5_lzFQ,Banana Cafe,Portland,OR,97222,45.4754257202,-122.6493301392,4.0,20,0,"Sandwiches, Restaurants, Vietnamese, Coffee & Tea, Food, Bubble Tea"
173,qtiIV8J5t5jfBM6UmIzzHA,Hawthorne Street Cafe,Portland,OR,97214,45.5118791,-122.6297626,3.5,74,0,"Sandwiches, Breakfast & Brunch, Restaurants"
174,3L-ezs0VANOtmdJDlbha1Q,Güero,Portland,OR,97232,45.5244618,-122.6370351,4.5,490,1,"Food, Restaurants, Vegetarian, Cocktail Bars, Local Flavor, Bars, Beer Bar, Sandwiches, Nightlife, Mexican, Food Trucks"
175,c4Wob0doJHF1TD2T2WidAQ,Starbucks,Portland,OR,97203,45.59025,-122.754577,3.5,25,0,"Food, Coffee & Tea"
176,f7OU-Qdx4RDl7uP1Dpj6VA,Dirty Lettuce,Portland,OR,97218,45.5612127,-122.6200325,5.0,24,1,"Food Trucks, Food, Restaurants, Cajun/Creole, Vegan"
177,QJom6ec8rcsJkjF03PxrpA,Thai Mango,Portland,OR,97202,45.460665,-122.6472232,3.0,13,0,"Restaurants, Thai"
178,KYmWUdbsTRF6GGniTNzk0A,Turn! Turn! Turn!,Portland,OR,97211,45.5625569,-122.6667248,4.5,34,1,"Nightlife, Sandwiches, Music Venues, Shopping, American (Traditional), Books, Mags, Music & Video, Arts & Entertainment, Bars, Vinyl Records, Lounges, Restaurants"
179,cxgffDJkf88suSwy7bAPTg,Yataimura Maru,Portland,OR,97202,45.504583,-122.6241433,4.0,564,1,"Restaurants, American (New), Ramen, Izakaya, Japanese, Tapas/Small Plates, Sushi Bars"
180,123xl1wYGqq1DMWIIJ8rjQ,Gandhi's An East Indian Cafe,Portland,OR,97204,45.5169875,-122.6754369,4.0,101,0,"Food, Coffee & Tea, Pakistani, Restaurants, Indian"
181,g-QZ-tti95pcXeoOjCV7Zw,WBX Meat Wagon,Portland,OR,97211,45.5786876976,-122.6597290343,4.0,9,0,"Food, Comfort Food, Restaurants, Food Stands, Specialty Food, Burgers, Food Trucks, Meat Shops"
182,BSgn3PhOghLhyw00hdiQyQ,Chipotle Mexican Grill,Portland,OR,97223,45.4547260619,-122.7769521001,2.5,147,1,"Restaurants, Fast Food, Mexican, Food"
183,Un6u2cECyV4nZb_HGZ-uTA,Tin Shed Garden Cafe,Portland,OR,97211,45.558987,-122.650876,4.0,1736,1,"Breakfast & Brunch, Gluten-Free, Beer, Wine & Spirits, American (New), American (Traditional), Vegetarian, Coffee & Tea, Burgers, Restaurants, Food"
184,K7VQAJfjLz22smblH557Ww,Rose City Coffee - Brooklyn,Portland,OR,97202,45.4986392,-122.6537315,4.5,67,1,"Coffee Roasteries, Food, Coffee & Tea, Bagels"
185,Kz1vH5Paf-7QdhmHwQUZlA,Yi Fang Taiwan Fruit Tea,Portland,OR,97223,45.4502551,-122.7813094,3.0,79,1,"Bubble Tea, Food, Coffee & Tea"
186,_seZlHwJ9qa7KGyy941PgQ,Twist Frozen Yogurt & Coffee Bar,Portland,OR,97210,45.5344964136,-122.6985951156,4.5,13,0,"Coffee & Tea, Food, Ice Cream & Frozen Yogurt"
187,WFciX1Zy7CwmrcFEhRcKXQ,Kauai Island Grill,Portland,OR,97229,45.5256274,-122.8148546,3.5,94,1,"Restaurants, Hawaiian"
188,7HEd7zVZqTtMdjmA0saluw,Kay's Bar,Portland,OR,97202,45.4738873,-122.6489963,4.0,245,1,"American (Traditional), Burgers, Restaurants, Bars, Sandwiches, Nightlife"
189,Nlz1BfgSMbMXkLMrouTplQ,Lydia's Lounge,Portland,OR,97233,45.5209474,-122.4737359,3.5,11,1,"Nightlife, Bars, Restaurants, Breakfast & Brunch"
190,P5dJc793DW_T3kvhRuZ2sw,Godiva Chocolatier,Portland,OR,97223,45.450249,-122.781931,4.0,18,1,"Specialty Food, Candy Stores, Food"
191,IBBuHLiFIzkjMdsueDOafw,Living Health,Portland,OR,97239,45.4816178,-122.6745199,4.5,11,0,"Education, Specialty Food, Medical Spas, Health Markets, Health & Medical, Specialty Schools, Food, Restaurants, Gluten-Free, Beauty & Spas, Vegan"
192,ocRkFCz9rMIHxrQqz4qp6g,Papa John's Pizza,Portland,OR,97202,45.4965968,-122.6312712,2.5,25,0,"Restaurants, Pizza"
193,Wv1A_nvyUuMEThZFuqLyvg,The Whole Bowl,Portland,OR,97215,45.512301,-122.616918,4.5,257,1,"Gluten-Free, Restaurants, Vegetarian, Vegan, Chinese, Food, Food Stands"
194,LNRg3-yquDP_iBJf10yHWA,MacTarnahan's Taproom,Portland,OR,97210,45.5415249,-122.7128905,3.5,66,0,"American (Traditional), Pubs, Restaurants, Bars, Breweries, Nightlife, American (New), Beer, Wine & Spirits, Food, Beer Bar"
195,427cd3XUT2DFlnTXUSw4jg,Koji Osakaya,Portland,OR,97205,45.5168957,-122.6805938,3.0,26,0,"Japanese, Sushi Bars, Food, Specialty Food, Restaurants"
196,yLWUprwVbsR8kSf9XdHw_w,Caffe Brioso,Portland,OR,97212,45.5510304,-122.6617722,4.0,12,0,"Bakeries, Coffee & Tea, Beer, Wine & Spirits, Food"
197,4droZrSKvd4UmQvCayFj8A,JaCiva's Bakery,Portland,OR,97215,45.512317,-122.613401,4.0,204,1,"Candy Stores, Desserts, Specialty Food, Food, Bakeries, Chocolatiers & Shops, Coffee & Tea, Restaurants"
198,ocGlGgaJxlK-4OFtY9DDgw,Muu-Muu's,Portland,OR,97209,45.5272284,-122.6944314,4.0,353,0,"Bars, American (New), Tapas/Small Plates, Nightlife, Restaurants"
199,zMDGuaaVRa0te4n9WmLk0Q,Cost Plus World Market,Portland,OR,97210,45.5238039,-122.6987546,4.0,45,0,"Cards & Stationery, Flowers & Gifts, Furniture Stores, Ethnic Food, Food, Home & Garden, Event Planning & Services, Arts & Crafts, Specialty Food, Home Decor, Beer, Wine & Spirits, Shopping"
200,nZqhNiDJ0_F8iam5PUQojg,A Great Oregon Wine Tour,Portland,OR,97220,45.536025,-122.569911,4.5,72,1,"Local Services, Hotels & Travel, Wineries, Arts & Entertainment, Food, Tours"
201,QRt3IZpt-2X6hP7pzsHf7w,Moberi,Portland,OR,97214,45.5119399,-122.6259405,4.0,14,1,"Restaurants, Vegetarian, Vegan, Acai Bowls, Juice Bars & Smoothies, Food"
202,bwGElWi6I90rp05Vh1aVIQ,Staccato Gelato,Portland,OR,97202,45.4736134,-122.6501151,4.5,36,0,"Restaurants, Donuts, Desserts, Food, Sandwiches, Ice Cream & Frozen Yogurt, Coffee & Tea"
203,9P-lp3AWDXGayDqJz9VPwQ,Marukin Ramen,Portland,OR,97214,45.522407,-122.65937,4.0,616,1,"Restaurants, Ramen, Noodles, Japanese"
204,Ly8E8wrBxzXQIBoE_FuxYA,Never Coffee,Portland,OR,97215,45.5167547,-122.6186539,4.5,132,1,"Food, Coffee & Tea"
205,Q-TGf1DMUxrRmqwecgLJvQ,Jade District Night Market,Portland,OR,97266,45.501,-122.579,4.0,7,1,"Event Planning & Services, Farmers Market, Venues & Event Spaces, Food"
206,pYAt9citsC7_GQJkoXEsNA,Bella Organic Farm,Portland,OR,97231,45.6394061103,-122.7942402777,3.0,140,1,"Active Life, Arts & Entertainment, Fruits & Veggies, Local Flavor, Wineries, Kids Activities, Food, Specialty Food"
207,pm71rh0HCLTc3hXLw2vkRQ,Ez Freezy,Portland,OR,97089,45.5041483,-122.5408966,4.0,50,1,"Bubble Tea, Ice Cream & Frozen Yogurt, Food"
208,UZUjgF7XW7WkvyUb8_qCiA,The Matador,Portland,OR,97210,45.5332606,-122.6985499,3.5,710,1,"Restaurants, Nightlife, Tex-Mex, Cocktail Bars, Mexican, Bars"
209,E4NQT-zr_f5A5qHkrwsu2A,Hawthorne Asylum,Portland,OR,97214,45.5127908,-122.6548734,4.5,48,1,"Food, Street Vendors"
210,_kzXYjmUfxWU6msUEecTiA,Puerto Marquez,Portland,OR,97233,45.5112402,-122.5378072,4.0,22,0,"Restaurants, Thai, Mexican"
211,idK-bHaCxxdjbuZ9w_hE4Q,Paterson Vegan Bar,Portland,OR,97232,45.523789,-122.637052,4.5,18,0,"Dive Bars, American (Traditional), Vegan, Bars, Restaurants, Nightlife"
212,i1tXdorHYPNAMV2IU160lg,Steamers Asian Street Bistro,Portland,OR,97232,45.5316595,-122.654578,3.5,33,0,"Food Court, Fast Food, Asian Fusion, Chinese, Dim Sum, Restaurants"
213,Af45j660dKn1eIu3XhzRDQ,Sweet Jam,Portland,OR,97211,45.561207171,-122.6619065925,4.0,33,0,"Southern, Desserts, Restaurants, Food, Sandwiches, Breakfast & Brunch"
214,GvBTwynyjalNWx1u7kXEBg,Suki Ramen,Portland,OR,97266,45.4636025,-122.5796078,4.5,79,1,"Japanese, Noodles, Food Trucks, Restaurants, Food, Ramen"
215,N5Loxg2orGi_4eiRSAIHVw,Basa Basa,Portland,OR,97232,45.5264931,-122.6416593,3.5,51,0,"Restaurants, Chicken Wings, Asian Fusion"
216,n0juZRsjGoFB9aWOD72t8g,Aladdin's Castle Cafe,Portland,OR,97206,45.505014,-122.611325,4.5,15,0,"Middle Eastern, Food, Street Vendors, Restaurants"
217,bW5ucB-x7p0za4n0ZfLYbg,McMenamins Greater Trumps,Portland,OR,97214,45.5117012,-122.6254584,4.5,55,1,"Tapas Bars, American (Traditional), Pubs, Lounges, Restaurants, Bars, Nightlife"
218,UXTQ6_CJiCNq3ovB6_-K6g,UniCart,Portland,OR,97204,45.5222548,-122.6733847,4.5,5,0,"American (Traditional), Restaurants"
219,7Uey3OQfLxJgKE8KcFqUqA,Taco Del Mar,Portland,OR,97220,45.5726379,-122.5570851,3.0,32,0,"Mexican, Fast Food, Restaurants"
220,juz9PQwych5_IQdLLqqi_Q,Giants NY Pizza & Subs,Portland,OR,97266,45.4902821,-122.5689758,5.0,22,1,"Restaurants, Pizza, Sandwiches, Italian"
221,xl3yRLiEivNOXwnecbNC0Q,Herb's Hawaiian Shave Ice,Portland,OR,97215,45.5168317,-122.6184734,4.5,13,1,"Food Trucks, Ice Cream & Frozen Yogurt, Shaved Ice, Food"
222,dXNfGbh2otsAxLGlpDenGA,Happy Garden,Portland,OR,97233,45.5051569,-122.538074,4.0,56,0,"Korean, Restaurants, Chinese"
223,JD1_uwSON4JmLVFofRZczA,Romano's Macaroni Grill,Portland,OR,97255,45.5175274,-122.6762335,3.0,62,0,"American (Traditional), Restaurants, Italian"
224,Irp5sgl7XASH5ZTw2D47qw,Navarre,Portland,OR,97232,45.5231276,-122.6371219,4.0,416,1,"Basque, Tapas Bars, Spanish, Restaurants, Italian"
225,e56Itu8AwOurYx1pQxdd8A,The Waffle Window,Portland,OR,97211,45.5589500341,-122.638487817,4.0,478,0,"Food, Desserts, Restaurants, Waffles, Ice Cream & Frozen Yogurt, Specialty Food, Breakfast & Brunch"
226,GxGc7S7PRbwQCmWFEkBMGQ,The Black Cat Cafe & Pub,Portland,OR,97227,45.5520236,-122.6807794,4.0,17,0,"Sandwiches, Beer, Wine & Spirits, Restaurants, Burgers, Cafes, Food"
227,vjXpK0i3P0gktiMd9GKUcQ,Sherpa Nirvana,Portland,OR,97218,45.5623583,-122.62064,4.5,22,1,"Food, Food Trucks, Himalayan/Nepalese, Restaurants"
228,KSZ2btjDp16TVKwrFNjyOw,Cheese & Crack,Portland,OR,97214,45.5120607,-122.6305715,5.0,27,0,"Food, Street Vendors, Food Stands, American (New), Restaurants"
229,A9vaHGkkzDqlKO4L2kjPyw,Vinn Distillery Tasting Room,Portland,OR,97214,45.5139702371,-122.6570490652,4.0,7,0,"Beer, Wine & Spirits, Distilleries, Food"
230,x6XbRllM1jGgTUK7YrDLWw,Brewskies Coffee,Portland,OR,97219,45.4594026,-122.7079799,4.5,11,1,"Nightlife, Bars, Coffee & Tea, Drive-Thru Bars, Food"
231,OVNiRWmNJuLHYzN6bIbxSA,Alberta Street Market,Portland,OR,97211,45.5592195,-122.656396,4.5,87,1,"Grocery, Restaurants, Chicken Wings, Food"
232,ChQ_Y6401bCvBOy9WyWSeA,Edible Arrangements,Portland,OR,97232,45.5262078644,-122.6378771423,4.0,41,1,"Specialty Food, Gift Shops, Shopping, Food, Florists, Local Flavor, Flowers & Gifts, Chocolatiers & Shops"
233,yuCuDILryaQJr1mEASauww,Farmfood Cart,Portland,OR,97203,45.588167,-122.744482,4.0,48,1,"Food Trucks, Food, Breakfast & Brunch, Restaurants"
234,lZCuDuBYPOaDV8k8tlQlSg,Barista,Portland,OR,97209,45.5269539,-122.6845432,4.5,425,1,"Food, Coffee & Tea"
235,4V8JaEpf0uKHPXDtUOUn0Q,Namu,Portland,OR,97239,45.5003758,-122.6707342,3.5,30,0,"Hawaiian, Restaurants, Food, Korean, Food Trucks"
236,DMqzf-NXhsIWmoXSV7GS2Q,Clarklewis,Portland,OR,97214,45.5153279201,-122.6660654929,4.0,509,1,"American (New), Restaurants, Bars, Nightlife, Wine Bars, Local Flavor, Italian"
237,luOZQ9YBrWwP8mYrS4rNoA,Happy Fortune,Portland,OR,97219,45.4504592,-122.7270663,3.0,71,1,"Chinese, Sports Bars, Nightlife, Restaurants, Dive Bars, Bars, Pool Halls"
238,kBH6NatBbSuPKIHxhWJnrA,Local Choice Produce Market,Portland,OR,97209,45.5250896,-122.6798083,4.0,39,0,"Farmers Market, Fruits & Veggies, Delis, Food, Specialty Food, Restaurants, Juice Bars & Smoothies"
239,HKJL25JjcZ-VSy2a3nR6WQ,The Whole Bowl,Portland,OR,97255,45.5205832077,-122.6810837165,4.5,80,0,"Restaurants, Food Trucks, Street Vendors, Food Stands, Vegan, Food, Vegetarian"
240,5fHZLHjlFmLfi78ibVyMMw,Green Leaf Chinese Cuisine,Portland,OR,97205,45.5206108058,-122.6813005909,3.5,14,0,"Chinese, Restaurants, Cantonese, Food Trucks, Food"
241,pgijw7qF82s-YCgtHbpJLg,F&b Cafe,Portland,OR,97214,45.5149055,-122.6602627,4.0,31,0,"Cafes, Home Services, Coffee & Tea, Food, Restaurants, Event Planning & Services, Interior Design, Caterers, Breakfast & Brunch"
242,JS_6WAQTILwGUwlL-oI9ag,HomeTown Buffet,Portland,OR,97216,45.5171396,-122.555732,2.5,75,0,"Buffets, Restaurants, American (Traditional), Food, Breakfast & Brunch, American (New), Coffee & Tea"
243,OkZ5kiqsOnKJMXQIvEUQ4w,The Pleasant Peasant,Portland,OR,97214,45.5127908,-122.6548734,5.0,86,1,"Food, Middle Eastern, Food Trucks, Vegetarian, Lebanese, Mediterranean, Vegan, Restaurants"
244,v2_7sEGUMSnluMT4yDa6aA,Slow Squeeze Juice,Portland,OR,97202,45.504588,-122.636204,5.0,16,0,"Juice Bars & Smoothies, Food, Food Trucks"
245,MAdb6CihsP4zSfNXK0s3_w,Twist Frozen Yogurt  Lounge,Portland,OR,97225,45.5155413,-122.7550257,3.5,35,0,"Restaurants, Food, Ice Cream & Frozen Yogurt"
246,fmSXiQxTiXFIxQQe4hq3OA,Fat Sub,Portland,OR,97213,45.5266846,-122.6084223,4.0,5,0,"Restaurants, Food, Sandwiches, Street Vendors, Food Court"
247,6lazkIi4AwuZcstS7za6Eg,Dutch Bros Coffee,Portland,OR,97221,45.4868650371,-122.7333227064,4.5,63,1,"Food, Coffee & Tea, Juice Bars & Smoothies"
248,L0W-GMffADV6vf9ZmvLIxA,Tin Seng Trading Company,Portland,OR,97266,45.5043829,-122.5771968,3.0,9,1,"Ethnic Grocery, Food, International Grocery, Grocery"
249,8oLDITIretePMzSqHjfTig,7-Eleven,Portland,OR,97236,45.4918858979,-122.4843396352,2.5,6,1,"Coffee & Tea, Convenience Stores, Food"
250,BtxzDV1dZ-1hAjN5eUsKrg,Top Burmese,Portland,OR,97209,45.5258365,-122.6946979,4.5,193,1,"Comfort Food, Restaurants, Tapas/Small Plates, Salad, Vegan, Food, Food Delivery Services, Caterers, Event Planning & Services, Burmese, Indian, Asian Fusion"
251,8qQTcEaMAD3GnDy7Y_CL6A,Chez Machin,Portland,OR,97214,45.512165,-122.6275701,4.0,398,0,"Restaurants, Breakfast & Brunch, French, Creperies, Salad"
252,hZRPLTB2PPfelHVGmOrCcg,Safeway,Portland,OR,97230,45.5337297,-122.4792425,2.5,7,0,"Grocery, Food"
253,0qOqrrssUaQSF1rCVaTfXA,Degarios Ristorante,Portland,OR,97229,45.558711,-122.865702,4.0,113,1,"Pizza, Restaurants, Italian"
254,af3n7eYe1D8M45VA_1kIXA,Jin-Dak,Portland,OR,97202,45.464095607,-122.6545647159,5.0,12,1,"Restaurants, Food Trucks, Food, Korean"
255,QJIkMEJpVNMX95ULlcIu9A,Safeway,Portland,OR,97214,45.5118255,-122.6374664,2.5,87,1,"Flowers & Gifts, Drugstores, Grocery, Shopping, Florists, Food"
256,f0oH9z87AU0buNUJlwCYXQ,Steinhaus,Portland,OR,97216,45.5056655779,-122.5783098961,4.0,54,0,"German, Beer Bar, Nightlife, Pubs, Bars, Restaurants"
257,_6BrVZ8q8OUpKprKXoopRQ,Panera Bread,Portland,OR,97217,45.6117566,-122.6827202,2.5,87,1,"Food, Restaurants, Bakeries, Sandwiches, Soup, Salad"
258,quba423Majp79sol6pl7_Q,Prosperity Pie Shoppe,Portland,OR,97219,45.467868,-122.713193,4.0,71,0,"Food, Restaurants, Desserts, Coffee & Tea, Cafes"
259,P9RA0JpiPlrf8RbPoKByXA,BoozeHound Baked Goods,Portland,OR,97209,45.529706,-122.6907712,5.0,15,0,"Desserts, Cupcakes, Food, Bakeries"
260,IWubvvAOxx5GePG3Fzj4Pw,Nicola's Pizza,Portland,OR,97203,45.5803854,-122.7189441,4.0,33,0,"Pizza, Italian, Restaurants"
261,Zt-MsNfSJvhqg4YZL07PcQ,WinCo Foods,Portland,OR,97206,45.4989632,-122.5809383,3.5,35,1,"Food, Restaurants, Seafood Markets, Specialty Food, Delis, Grocery"
262,11wXnpi6xN96wi2suPDpUA,Shelly's Garden Burritos,Portland,OR,97255,45.5186561853,-122.6792652539,4.5,39,0,"Restaurants, Mexican, Food Stands"
263,y97FA-LZcYdZZXLW74GM1g,PDX Six Seven One,Portland,OR,97213,45.5403827648,-122.6094500312,4.5,81,0,"Food Trucks, Asian Fusion, Guamanian, Food, Food Stands, Restaurants"
264,g4CP3kgH1jTtMn-joxPT0A,Tea Chai Te,Portland,OR,97202,45.4659445,-122.6531822,4.0,225,1,"Tea Rooms, Coffee & Tea, Kombucha, Food"
265,TuKZnuq5q3C565SUC6dmEw,Nespresso Boutique,Portland,OR,97223,45.4502551,-122.7813094,3.0,31,1,"Food, Cafes, Coffee Roasteries, Restaurants, Coffee & Tea"
266,s4HoWj84JEsI_a2qe-3fbQ,Denny's Restaurant,Portland,OR,97217,45.6110313,-122.6809516,2.5,37,0,"Diners, Restaurants, Breakfast & Brunch"
267,apQ9K31A1nBKEonySIY_RQ,B2 Coffee Haus,Portland,OR,97209,45.5327568,-122.6921073,2.5,7,0,"Food, Coffee & Tea"
268,6l3VwoqCLsAOOlhk62B5pQ,Nicholas Restaurant,Portland,OR,97232,45.5353123,-122.6322721,4.0,411,1,"Gluten-Free, Lebanese, Bars, Restaurants, Nightlife, Hookah Bars, Mediterranean, Middle Eastern"
269,XIed_9016zvomsA3tqhWZg,Namu,Portland,OR,97213,45.5339053,-122.6013173,3.0,13,1,"Korean, Food Trucks, Barbeque, Hawaiian, Restaurants, Food"
270,oHUUib6MhY7rb0DFZuuFgA,Cafe Del Toro,Portland,OR,97217,45.609519,-122.68081,4.5,7,1,"Bars, Restaurants, Nightlife, Mexican"
271,KTFh7wJtV5mbb6HP3Eihnw,Cha Taqueria & Bar,Portland,OR,97209,45.5250595,-122.6946436,3.0,219,0,"Nightlife, Bars, Mexican, Restaurants"
272,PwUzhf2Hx2KLJ69D7FuTqQ,Fat City Café,Portland,OR,97219,45.4677574,-122.713249,4.0,261,1,"Restaurants, Cafes, Breakfast & Brunch"
273,rRWak9bVftgsZh3jDIXXCw,Roman Russian Food Store,Portland,OR,97266,45.5039512,-122.551078,4.0,85,1,"International Grocery, Restaurants, Delis, Russian, Food, Grocery"
274,S7mL8gwckyeWuLGmE94kkw,Wiz Bang Bar,Portland,OR,97204,45.52139,-122.67252,4.0,486,1,"Desserts, Ice Cream & Frozen Yogurt, Food"
275,hFNplgUgW_edaqi0MTWf0A,Presso Coffee Bar,Portland,OR,97217,45.582958,-122.687372,4.5,126,1,"Caterers, Coffee Roasteries, Event Planning & Services, Food, Breakfast & Brunch, Desserts, Coffee & Tea, Restaurants, Kombucha, Food Delivery Services"
276,3B33i7vqEFdZfQ3NK1wnYA,Peeples Baking,Portland,OR,97201,45.4558436332,-122.738234095,5.0,19,1,"Food, Restaurants, Desserts, Food Trucks, Breakfast & Brunch, Coffee & Tea"
277,EvUBrNbcB9hg7druso7QgA,Vintage  Cocktail Lounge,Portland,OR,97215,45.5192519959,-122.5817652492,4.5,191,1,"Restaurants, Cocktail Bars, Nightlife, Lounges, Bars"
278,6BPQKYP0H6l4raCdAMIPtA,Sip,Portland,OR,97202,45.5007787,-122.6449526,4.0,113,1,"Food Stands, Food, Vegan, Restaurants, Juice Bars & Smoothies, Gluten-Free, Food Trucks"
279,iIJkKsHcql8rjhPluacs-A,Bunk Bar,Portland,OR,97212,45.5406738,-122.6634791,3.5,89,0,"Sandwiches, Nightlife, Restaurants, Bars"
280,QDPhI0t1Vn7V-k7gOmxY4g,VISO Beverage Company,Portland,OR,97217,45.5833323,-122.6799495,2.5,51,0,"Specialty Food, Food"
281,9iWVBWFS5gNHkccly-S61Q,Jamaican Homestyle Cuisine,Portland,OR,97217,45.562892,-122.6710976,4.0,129,1,"Caribbean, Restaurants"
282,HXpqpRy579Qy5mnNlVIuPA,Michoacan,Portland,OR,97217,45.5740388,-122.6817924,3.0,16,1,"Mexican, Restaurants, Gluten-Free"
283,9n5kSS2kn9kb3-CZGOoAqw,Clamity Jae's,Portland,OR,97220,45.5337613,-122.551031,3.0,58,1,"Restaurants, American (Traditional), Nightlife, Bars"
284,zjdf_v77rKCPaMwSsFa58g,Hapa Howies,Portland,OR,97211,45.5629709,-122.6591093,4.5,40,1,"Food Trucks, Food, Hawaiian, Food Stands, Restaurants"
285,ng7PLTWTssb01CEbPI3yRA,Starbucks,Portland,OR,97229,45.554263,-122.83639,3.5,42,1,"Coffee & Tea, Food"
286,xF1GE1WAOGupY8MPHFENiw,Gimme Bap,Portland,OR,97211,45.5591837,-122.6422045,5.0,5,0,"Restaurants, Food, Korean, Food Trucks"
287,Rj-1mrGjhAH4RYJQQD5TYw,J & T Market & Deli,Portland,OR,97213,45.5261884,-122.6164536,3.0,11,1,"Delis, Grocery, Beer, Wine & Spirits, Food, Restaurants, International Grocery, Convenience Stores"
288,t5nVOUdnY8IZS6eQEfOI_w,Pho Oregon Restaurant,Portland,OR,97220,45.540397,-122.5786259,4.0,661,1,"Noodles, Vietnamese, Restaurants"
289,dzJLck373Ll0BgLWKnj8_Q,Lek Thai Food,Portland,OR,97214,45.5121959,-122.6328655,3.5,7,0,"Restaurants, Thai, Food"
290,0Qo05vr-SIml4clER4zThg,Turkish Agha,Portland,OR,97266,45.4936755,-122.5793608,5.0,13,1,"Middle Eastern, Food, Turkish, Restaurants"
291,H_RM2u1WWGU1HkKZrYq2Ow,Blue Star Donuts,Portland,OR,97205,45.520717,-122.683874,4.0,4011,0,"Coffee & Tea, Bakeries, Restaurants, Food, Donuts, Breakfast & Brunch"
292,oM2M_aTcK1DrsRnaizQVKw,Mad Greek Deli,Portland,OR,97229,45.5577344,-122.867101,3.5,122,0,"Mediterranean, Bars, Restaurants, Sandwiches, Greek, Event Planning & Services, Delis, Caterers, Nightlife"
293,hwispCvACnVUk6-0thwLmQ,50 Plates,Portland,OR,97209,45.5256161,-122.6843847,3.5,163,0,"Restaurants, Event Planning & Services, Caterers, Party & Event Planning, American (New)"
294,JsEwlEUZvxAmbffj-mpZHg,The Fried Onion,Portland,OR,97214,45.518064,-122.662952,5.0,141,1,"Food Stands, Restaurants, Hot Dogs"
295,f2W9mbe2Mg0U9a9UHH0xuA,PDXBiryani,Portland,OR,97209,45.5257105,-122.6775258,4.0,5,0,"Caterers, Event Planning & Services, Halal, Restaurants, Indian, Pakistani"
296,uw1aCHtqaxgx41A-0IbvEQ,Herb's Mac and Cheese,Portland,OR,97202,45.5165787,-122.6183043,4.5,158,1,"Food Trucks, Food, American (New), Food Stands, Restaurants, American (Traditional)"
297,oYhgvmNWRtdaWELpHJnISA,Vtopia All Vegan Restaurant & Cheese Shop,Portland,OR,97201,45.517496,-122.6910356,4.5,333,1,"Delis, Food, Cheese Shops, Vegan, Specialty Food, Restaurants"
298,vsI75Kaq-8ZqWBqfOJC_Mg,F.H. Steinbart Company,Portland,OR,97214,45.521054,-122.6532194,4.0,57,1,"Local Flavor, Brewing Supplies, Beer, Wine & Spirits, Shopping, Food, Specialty Food"
299,RJ17D4rbjNu3KGW5qZRFIA,Jamba Juice,Portland,OR,97229,45.5276607069,-122.8157620677,4.0,8,1,"Food, Juice Bars & Smoothies"
300,rrRl5B_QmPQqKVbfhPAmGg,Whiskey Dolls Game Room,Portland,OR,97209,45.525504,-122.67786,5.0,5,0,"Bars, Nightlife, Arts & Entertainment, American (Traditional), Restaurants, Arcades, Sports Bars"
301,zKcECvQwnqZADbMLErEd8A,KT Sandwiches,Portland,OR,97214,45.512421,-122.631174,3.5,20,1,"Food Trucks, Food Stands, Food, Restaurants, Vietnamese, Sandwiches"
302,b5vnVWT8nl6eB2gOqwt5yw,Moe's Deli,Portland,OR,97217,45.597483,-122.669695,4.0,6,1,"Food, Restaurants, Convenience Stores, Desserts, Sandwiches, Delis"
303,sFcrrwKyKV0V9l2qWym0WQ,Concordia Coffee House,Portland,OR,97211,45.5591475,-122.6356095,3.5,13,0,"Coffee & Tea, Food, Restaurants"
304,yM1R4ZsKcARkijUYB4_mTA,Grandpa's Cafe,Portland,OR,97227,45.5507327,-122.6806034,4.0,12,1,"Restaurants, Polish, Cafes, Modern European, Delis"
305,qRd9LC8XK5PS5JuMhuOK4Q,Cultured Caveman,Portland,OR,97214,45.5122298,-122.6205222,4.0,63,0,"Restaurants, Gluten-Free, Food Trucks, Food"
306,GpL_bSYuUA0JepPygA5JNw,McDonald's,Portland,OR,97212,45.5372737992,-122.6224843122,2.5,23,1,"Food, Burgers, Fast Food, Coffee & Tea, Restaurants"
307,ieFg8CYaGJn1hMZU6zfivQ,Prickly Ash,Portland,OR,97217,45.5545039,-122.6757667,4.5,23,0,"Food, Street Vendors"
308,E5yQc7ujyi_euHtEki_djQ,Pono Farm Soul Kitchen,Portland,OR,97212,45.5354189712,-122.6211149704,4.5,303,0,"Sushi Bars, Soul Food, Meat Shops, Hawaiian, Steakhouses, Specialty Food, Breakfast & Brunch, Food, Restaurants, Japanese"
309,m9lY7-_STgR1zunqOY9G8g,Bipartisan Cafe,Portland,OR,97215,45.5192951,-122.5822719,4.0,340,1,"Bagels, Cafes, Restaurants, Desserts, Coffee & Tea, Food"
310,hS1QkoZz9KvMZMJfDCBTug,McDonald's,Portland,OR,97218,45.589565,-122.598465,2.5,48,1,"Burgers, American (Traditional), Coffee & Tea, Fast Food, Food, Restaurants"
311,bFAgVuEx5qNa2gBV5OH46Q,Daily Grind Natural Foods,Portland,OR,97214,45.5117807,-122.6210024,4.0,8,0,"Grocery, Bakeries, Restaurants, Vegetarian, Health Markets, Specialty Food, Food"
312,7DTW8prLURayPDfS5yT9hQ,Bubba Bernie's,Portland,OR,97214,45.5122215,-122.6536739,3.0,65,0,"Food Stands, Restaurants, Cajun/Creole"
313,O_BAT_rvszHYBNEM6z0tcQ,Subway,Portland,OR,97204,45.5199352739,-122.677917119,2.5,20,1,"Sandwiches, Desserts, Food, Salad, Fast Food, Restaurants"
314,_V8gYro3zP38rtLW_c5fQQ,Rip City Sandwiches,Portland,OR,97266,45.4633917395,-122.5796649799,4.5,19,0,"Vegetarian, Shopping, Restaurants, Food Stands, Food, Food Trucks, Sandwiches"
315,u-FbwIeWhwVWh9-HOfI_pg,Henry's Market,Portland,OR,97216,45.5167392,-122.5791455,5.0,15,1,"Food, Convenience Stores"
316,m68Kg4CcqP_e_53Mzaa_gw,Walgreens,Portland,OR,97232,45.5349034,-122.6601985,3.5,28,1,"Convenience Stores, Photography Stores & Services, Beauty & Spas, Cosmetics & Beauty Supply, Shopping, Drugstores, Food"
317,n-1GhdQxhNYXslTi8Ksyfw,Fry Guy,Portland,OR,97202,45.5048742,-122.6541936,4.5,11,0,"Street Vendors, Restaurants, Food Trucks, Food Stands, Food"
318,ism3AoO4K6RDprm7_Zs84Q,Quartet,Portland,OR,97201,45.5084417,-122.6736281,3.0,84,0,"Local Flavor, Nightlife, Restaurants, Arts & Entertainment, Piano Bars, Jazz & Blues, Steakhouses"
319,vXsJAUFRWM_Bk80aii-fdQ,Larry's Garden Golf Restaurant,Portland,OR,97222,45.4473035,-122.5803689,4.0,14,1,"Restaurants, American (New)"
320,s_w5X12yiPm-DbpOpGgLRg,10th Avenue Liquor Store,Portland,OR,97205,45.51834,-122.6831829,3.5,28,1,"Beer, Wine & Spirits, Food"
321,79GkYezT7sTpLjeL3TX82A,Rainbow Chinese Restaurant,Portland,OR,97266,45.5023762101,-122.5784741342,4.0,12,0,"Dim Sum, Restaurants, Cantonese, Chinese"
322,Q3D7A_HdfRGQ0eXWstTVhQ,Williams-Sonoma,Portland,OR,97210,45.5253146,-122.6981258,3.0,38,1,"Specialty Food, Food, Furniture Stores, Home Decor, Kitchen & Bath, Home & Garden, Shopping"
323,Lu8MNHHOiH-qq-y3tF7Y3A,etc... eatery,Portland,OR,97239,45.4770602,-122.6736694,4.5,73,0,"Comfort Food, Caterers, Restaurants, Event Planning & Services, Tacos, Food, Bars, Breakfast & Brunch, Salad, Cocktail Bars, Sandwiches, Desserts, Mexican, Nightlife, Barbeque"
324,IyCG8CxQkHReZ2Rl46YiJw,Fuego Food Carts Burritos & Bowls,Portland,OR,97201,45.5119976,-122.6777605,4.0,59,1,"Food, Restaurants, Event Planning & Services, Mexican, Caterers, Food Stands"
325,Jllw9aE3QG1739MSzUZesA,Roe,Portland,OR,97205,45.520561,-122.679198,4.5,217,0,"Restaurants, American (New), Seafood"
326,X3bKIX-3uk9970bNst49tA,Bijou Cafe,Portland,OR,97204,45.5216220854,-122.6735773769,4.0,854,1,"Cafes, American (New), Breakfast & Brunch, Nightlife, French, Bars, Restaurants, Cocktail Bars, Beer Bar"
327,lE77zvicz0j58dN6Qwzqiw,Om Nom Nom... Sandwiches,Portland,OR,97206,45.5052785,-122.617115,4.0,6,0,"Food, Food Stands, Restaurants, Sandwiches"
328,KInfSN1mRxFsKxC0OMRhzw,Portland Coffee House,Portland,OR,97205,45.5199585,-122.6795146,3.5,26,0,"Coffee & Tea, Restaurants, Food"
329,xc5vGkdD1x5T1l5XyQR_rw,Wildwood,Portland,OR,97209,45.5317915,-122.6950131,4.0,229,0,"Restaurants, Local Flavor, American (New), Nightlife, Bars, Wine Bars"
330,li1poS00PgnMjxaap62awA,Dutch Bros Coffee,Portland,OR,97209,45.5233428609,-122.6936012685,4.5,68,1,"Coffee & Tea, Juice Bars & Smoothies, Food"
331,IGBaK1_OTzG0b1lI45IH_A,Scoop Handmade Ice Cream,Portland,OR,97217,45.562529,-122.695305,4.5,57,0,"Food, Ice Cream & Frozen Yogurt, Food Stands, Food Trucks, Desserts, Restaurants"
332,-tpAK8xfIke0V_W4AFrdKg,Arlo's Fish & Chips,Portland,OR,97203,45.587773722,-122.742259854,4.5,58,1,"Fish & Chips, Restaurants, Street Vendors, Food, Coffee & Tea, Food Stands"
333,a-XS00dcWdlYRzPn9gsPow,Big Town Hero,Portland,OR,97204,45.519715,-122.6734913,3.0,8,0,"Restaurants, Sandwiches"
334,nv0fIoXgtSMQRrL-wfKAJw,Garden Monsters,Portland,OR,97211,45.5592305,-122.6420994,4.5,80,0,"Street Vendors, Restaurants, Salad, Food, Gluten-Free, American (New), Food Trucks"
335,L64B6cjL1pQ1IvoqMojnig,OUIBar + KTCHN,Portland,OR,97201,45.5142749723,-122.6824226168,4.0,34,1,"American (Traditional), Bars, Nightlife, Restaurants, Breakfast & Brunch"
336,D_Ok4DpAnd1P7TylF38PLg,Sec Wines,Portland,OR,97212,45.5353603,-122.6468256,4.0,11,1,"Beer, Wine & Spirits, Food"
337,QZxHajqmhifn6Uz6JcUyNg,Panera Bread,Portland,OR,97220,45.5698754,-122.5468465,2.5,114,1,"Bagels, Coffee & Tea, Soup, Bakeries, Restaurants, Sandwiches, Salad, Food"
338,DDYQjAiMDKu7SlZoTdCKsA,Joseph & Brian's Diner,Portland,OR,97239,45.4787204,-122.6949984,4.0,5,1,"American (Traditional), Food, Accountants, Home & Garden, Gold Buyers, Chinese, American (New), Pizza, Nightlife, Italian, Professional Services, Beauty & Spas, Thai, Shopping, Hair Salons, Golf, Fitness & Instruction, Contractors, Watches, Home Services, Bars, Breakfast & Brunch, Local Services, Trainers, IT Services & Computer Repair, Tableware, Burgers, Japanese, Plumbing, Parks, Active Life, Automotive, Restaurants, Auto Repair, Mobile Phone Repair, Movers, Dog Parks"
339,MAnjcQDE-CMTmtD6I8qJGQ,Plaza Deli,Portland,OR,97258,45.5131582729,-122.6751265018,4.5,40,1,"Breakfast & Brunch, Delis, American (New), Sandwiches, Restaurants"
340,W60O4ast9uAq03n7nzcHSw,Paley's Place,Portland,OR,97209,45.5313891084,-122.6944754765,4.0,534,1,"Restaurants, French, Local Flavor, Bars, Wine Bars, Italian, Nightlife"
341,MDP2oqCrTBSUQC9dsM_xiw,Abu Omar Gyros & Shawarma,Portland,OR,97214,45.5127908,-122.6548734,5.0,6,1,"Restaurants, Mediterranean"
342,T1Gi5BN7eH99tu2x7q8RFA,Tope,Portland,OR,97209,45.52332,-122.674821,3.5,102,1,"Restaurants, Mexican, Breakfast & Brunch, Nightlife, Tacos, Bars"
343,zIUFzFUy4Ja0TWMClV0xRQ,Marinepolis Sushi Land,Portland,OR,97209,45.524275,-122.68101,2.5,310,1,"Conveyor Belt Sushi, Sushi Bars, Restaurants, Japanese"
344,_IkPghLfySEgEDrg9RzipA,Saigon Pearl Restaurant & Lounge,Portland,OR,97216,45.5070267,-122.5785967,3.5,19,0,"American (New), Nightlife, Vietnamese, Lounges, Bars, Restaurants"
345,Md54AD4blgW1OZBaY2l22g,Third Wave Coffee Tours,Portland,OR,97204,45.516964,-122.6732897,5.0,37,1,"Tours, Coffee & Tea, Hotels & Travel, Food"
346,MQ-b3K2xbOW1TWCUnz2Qgw,Bangkok Curry Company,Portland,OR,97201,45.509867,-122.6812479,4.5,22,0,"Food Trucks, Food, Street Vendors, Thai, Restaurants"
347,Aw7k9hYGOp2eNNO9SJXqag,Lightning Will Bar & Grill,Portland,OR,97209,45.5251727093,-122.6945668902,4.0,110,1,"American (Traditional), Gastropubs, Nightlife, American (New), Sports Bars, Restaurants, Bars"
348,46papwYigu0NWzd0WV5kEA,West Cafe Taqueria,Portland,OR,97201,45.5166958,-122.686474,3.5,7,0,"Mexican, Restaurants, Cafes"
349,R87N6i-a92vJSSMpu_VYPQ,Cafe Du Berry,Portland,OR,97239,45.4773778,-122.6723808,3.5,302,1,"Restaurants, Breakfast & Brunch, Wine Bars, Nightlife, French, Bars"
350,iPd53N0IJbNV5Mha_C5D_Q,KFC,Portland,OR,97236,45.5044168411,-122.5137634399,1.5,24,1,"Chicken Wings, Chicken Shop, Fast Food, Restaurants"
351,ySxcc8ETrut9pasw6I2__Q,TartBerry,Portland,OR,97205,45.518167,-122.6820182,4.5,236,1,"Food, Desserts, Ice Cream & Frozen Yogurt"
352,aFaOQFel8VkMqA5itiT03w,Even Keel Coffee Co,Portland,OR,97209,45.5245376155,-122.6706974333,5.0,12,1,"Restaurants, Sandwiches, Coffee & Tea, Food, Salad"
353,40Ibl_tuwyA_DItAFc5dpg,Conin Mexican Cuisine,Portland,OR,97219,45.459349,-122.7094782,4.5,245,1,"Restaurants, Mexican, New Mexican Cuisine"
354,y1rzdZVSMTedk08-Pvifxg,The Dinner Detective,Portland,OR,97232,45.5325776,-122.661142,3.0,10,1,"Party & Event Planning, Venues & Event Spaces, Restaurants, Dinner Theater, Yelp Events, Event Planning & Services, Arts & Entertainment, Local Flavor, Nightlife, Comedy Clubs, Performing Arts"
355,CyIi6Sry9WRUn1EqcD92-Q,Green Line Cafe,Portland,OR,97216,45.5043505465,-122.5678324699,1.5,5,1,"Coffee & Tea, Food, Restaurants, Japanese, Donuts"
356,BN4C-eZCrxuQRBjcqMhDgw,Sellwood Inn,Portland,OR,97202,45.462747,-122.6472436,3.0,23,1,"Beer Gardens, Cocktail Bars, Burgers, Nightlife, Bars, Dive Bars, Sports Bars, Restaurants"
357,hLVS-qVCKZojoj-dYD5d-A,Wendy's,Portland,OR,97232,45.5296038,-122.6352727,2.0,25,1,"Burgers, Fast Food, Restaurants"
358,TAvz8LOfGX8z5FrfvC_ggg,Safeway,Portland,OR,97219,45.4658458,-122.698705,2.5,72,1,"Food, Drugstores, Grocery, Shopping, Convenience Stores"
359,9xyzTmvOco6XpmcMoJlsyA,Brazen Bean,Portland,OR,97209,45.5265294,-122.6940371,4.0,21,0,"Lounges, Bars, American (New), Nightlife, Restaurants"
360,tSqfVdT5EFy39-VHh2rOUw,Spice Kitchen,Portland,OR,97266,45.504888,-122.5777362,4.5,74,0,"Food, Restaurants, Buffets, Soup, Falafel, Mediterranean, Indian, Pizza, Desserts, Salad, Halal"
361,cTx4eOd6DSXS1eNOUD-qyQ,Pop Pizza,Portland,OR,97214,45.5171398,-122.6595986,4.0,43,1,"Restaurants, Pizza"
362,rZM3wfiDM1XdKme9IGsxAA,503 Burger Co,Portland,OR,97217,45.554373,-122.6758145,4.0,27,0,"Food Trucks, Burgers, Restaurants, Food, American (Traditional)"
363,YJz9pRSkkMOIGMJ2cX8GZQ,Roscoe's,Portland,OR,97215,45.5193334,-122.5803508,4.0,335,1,"Sushi Bars, Bars, Dive Bars, Restaurants, Beer Bar, Nightlife, Pubs"
364,SAN8GC4p60z-X-rqMUH5RQ,Poblano Pepper,Portland,OR,97215,45.5166972,-122.6189034,4.0,11,1,"Food, Restaurants, Food Trucks, Mexican, Caterers, Event Planning & Services"
365,kyE_aN-IFmMd65wNjvp2aQ,Nectar Cafe,Portland,OR,97213,45.5369125999,-122.620565566,4.5,210,1,"Cafes, Bagels, Beer, Wine & Spirits, Vegan, Juice Bars & Smoothies, Food Trucks, Coffee & Tea, Breakfast & Brunch, Food, Nightlife, Bars, Restaurants"
366,t7xU-yqkOegA06LjjjV12A,Spella Caffe,Portland,OR,97204,45.5196929008,-122.6769752469,4.5,280,1,"Food, Coffee & Tea"
367,KQrLzcZr7TekYRAg52p_4g,Ben and Sam's - The Vienna Bakery,Portland,OR,97217,45.5551786,-122.6820351,4.0,10,1,"Bakeries, Sandwiches, Coffee & Tea, Restaurants, Food"
368,VJJ3_oNesS9bvIlayL0kQA,The Waypost,Portland,OR,97227,45.5457673181,-122.6664848478,4.0,115,1,"Mexican, Bars, Arts & Entertainment, Coffee & Tea, Food, Restaurants, Tacos, Nightlife, Pubs, Tex-Mex, Music Venues, Sandwiches, Vegan"
369,MP12KzsczEWxqCCf95Zdew,New Seasons Market - Concordia,Portland,OR,97211,45.5612987873,-122.6301853378,4.0,169,1,"Health Markets, Food, Organic Stores, Grocery, Specialty Food"
370,bIjDfmOeBcbfFQLMIJpnZg,Mini Mini,Portland,OR,97214,45.5228005022,-122.6588486706,4.0,5,0,"Health Markets, Convenience Stores, Food, Specialty Food"
371,B7EtubnH2gb4BEm4Hhos_Q,Club 205,Portland,OR,97216,45.5192262,-122.5613799,3.5,66,1,"Bars, Adult Entertainment, Nightlife, Restaurants, Sandwiches, Burgers, Food"
372,xE6dY-orDj6YZW7qGiB4CA,The Conquistador,Portland,OR,97214,45.5166435242,-122.6445846558,4.0,239,0,"Nightlife, Restaurants, Mexican, Vegetarian, Latin American, Lounges, Beer, Wine & Spirits, Food, Bars"
373,TqwuYiFRgwVVh07ULwnwQg,Stonewalls Market,Portland,OR,97206,45.4692648,-122.5897461,4.0,7,1,"Grocery, Convenience Stores, Food"
374,YSUVzxpNb6GmvprCqaQuIg,Peet's Coffee,Portland,OR,97209,45.523569,-122.68256,3.5,44,1,"Restaurants, Food, Coffee & Tea"
375,yrJiotsPTnAhQ_fTclwLJg,Lents Draft and Bottle,Portland,OR,97266,45.4815499,-122.575181,5.0,8,1,"Nightlife, Pubs, Bars, Beer Bar, Food, Cideries, Arts & Entertainment, Wine Bars, Music Venues"
376,PJeCHFx-D-NpjF5_WaAS7w,Arrosto,Portland,OR,97232,45.527168,-122.6417001,4.0,72,1,"Chicken Shop, Latin American, Restaurants, Mediterranean"
377,NucD8q26b6y7f81cQ1FNYw,Mangiamo!,Portland,OR,97203,45.5875709,-122.7423628,4.5,6,1,"Gluten-Free, Street Vendors, Italian, Restaurants, Food Trucks, Food, Desserts"
378,-TOfMl4hLjH1iOQStV1opw,Oba,Portland,OR,97209,45.5271706,-122.6835215,4.0,570,0,"Nightlife, Food, Beer, Wine & Spirits, Latin American, Restaurants, Bars, Lounges"
379,l1xHKh_MKYzDDaq3XOm8Wg,Lucca,Portland,OR,97212,45.548079,-122.641476,4.0,287,1,"Restaurants, Italian"
380,6Y_S0K_4gHN3QhNWZUMmEw,In J Coffee,Portland,OR,97201,45.5146338,-122.6842724,5.0,49,1,"Coffee Roasteries, Coffee & Tea, Restaurants, Food, Sandwiches, Bakeries, Breakfast & Brunch"
381,GQXt_s2W-94PzTQ7J16pAw,Subway,Portland,OR,97210,45.5538444009,-122.7312628198,3.0,7,1,"Food, Grocery, Restaurants, Sandwiches"
382,enOjG-yGGgm1orBjjW7yyg,Il Terrazzo,Portland,OR,97201,45.5102213,-122.6739867,4.0,168,1,"Beer, Wine & Spirits, Cocktail Bars, Italian, Nightlife, Restaurants, Wine Bars, Food, French, Bars"
383,0lXTBIqLkPtSyKQDOYeosQ,Mama Chow's Kitchen,Portland,OR,97204,45.5206428,-122.6731087,4.5,215,1,"Chinese, Restaurants, Food, Chicken Wings, Food Trucks"
384,fxAomhIJw9ZvuNpfFI6Frg,The Cookie Dough Cafe,Portland,OR,97209,45.5240564,-122.6840128,4.0,266,1,"Food, Desserts, Ice Cream & Frozen Yogurt, Bakeries"
385,XpSXmVYFKCOmoqvU3kl-wQ,Baja Fresh,Portland,OR,97223,45.4375428,-122.7568213,2.5,46,1,"Restaurants, Mexican, Tex-Mex, Fast Food"
386,Evkn2Rlxmu25wlHnl5KC7A,Township and Range,Portland,OR,97214,45.5120074,-122.6410808,4.0,41,0,"American (Traditional), Sandwiches, Restaurants, Burgers, Food"
387,ABsVFWQw71KnxxWiEhI0QQ,Smart Foodservice Warehouse Stores,Portland,OR,97217,45.5961311,-122.676066,3.5,5,1,"Professional Services, Cheese Shops, Fruits & Veggies, Wholesalers, Specialty Food, Restaurant Supplies, Grocery, Wholesale Stores, Shopping, Food"
388,jtB7RWXq0w0UusnfTFq0rA,Loving Hut,Portland,OR,97201,45.5168332,-122.6870285,4.5,404,1,"Vegan, Restaurants"
389,Ndncbj-56MlCTQjwMr_B1w,Steaks Fifth Avenue,Portland,OR,97205,45.5188540432,-122.6789186466,4.5,78,0,"Burgers, Cheesesteaks, Restaurants, Food Stands"
390,Td_nJZoWOXGn57o1JRICaw,Van Hanh Restaurant-Vegan & Vegetarian,Portland,OR,97266,45.5046624341,-122.5762504437,4.0,239,1,"Asian Fusion, Vegetarian, Vietnamese, Food, Restaurants, Juice Bars & Smoothies, Vegan"
391,YP-hmecnBsb_zr2mBdh6Ow,Anna Bannanas NW,Portland,OR,97209,45.5315957,-122.6943739,4.0,302,1,"American (Traditional), Cafes, Restaurants, Food, Breakfast & Brunch, Coffee & Tea"
392,6W_Dcu-kcPa4QzwDg4kjow,Wilfs Restaurant & Bar,Portland,OR,97209,45.5286288551,-122.6762887139,3.5,258,1,"American (New), Arts & Entertainment, American (Traditional), Steakhouses, Nightlife, Bars, Restaurants, Jazz & Blues"
393,a6muT0UtMwqdw6lFystqcA,Affogato,Portland,OR,97203,45.5906812221,-122.7555552498,4.5,114,1,"Food, Gelato, Ice Cream & Frozen Yogurt, Coffee & Tea"
394,9j38qJq0ckjF7gCmBz_fnA,Raha Persian Cuisine,Portland,OR,97205,45.521209,-122.681099,5.0,5,0,"Beauty & Spas, Persian/Iranian, Kosher, Hair Loss Centers, Restaurants"
395,3tMzCPeeSkgJZoUcK-_F6Q,Diamond Thai,Portland,OR,97232,45.5582948794,-122.5988388062,3.5,8,1,"Thai, Restaurants, Food Stands"
396,ncRoLv6zWxQaMjLj1ZC_uA,Expatriate,Portland,OR,97211,45.5623529,-122.6348562,4.0,268,1,"Nightlife, Bars, Cocktail Bars, Restaurants, Burmese, Asian Fusion"
397,C-Z9lG5jcMJcWe6J90lBZQ,ARUGULARIUM Creperie Bakery,Portland,OR,97202,45.4622865,-122.6473181,4.0,141,0,"Nightlife, Bars, Bakeries, Restaurants, Food, Creperies, Breakfast & Brunch"
398,itDQQBztG5kem20X3G51FQ,Teote Mezcalería,Portland,OR,97211,45.5588892,-122.6376985,3.5,74,1,"Latin American, Restaurants, Nightlife, Bars, Cocktail Bars"
399,sl5UucaszElqbnP_RVQN0Q,Caffé Autogrill,Portland,OR,97239,45.4776036,-122.6992882,3.5,15,0,"Sandwiches, Restaurants, Coffee & Tea, Italian, Food"
400,IkOy_aplgy0AHNPr8gQ-MA,Otto & Anita's European Restaurant,Portland,OR,97219,45.4689183,-122.7087167,4.5,234,1,"German, American (New), Restaurants"
401,K4UY12n0i2UOXLNc-7HpnA,Pok Pok Wing,Portland,OR,97219,45.465248,-122.697969,3.5,78,0,"Thai, Restaurants, Chicken Wings"
402,0WqROvvlHjvpeHIP0fg9EQ,PDX Sliders,Portland,OR,97202,45.473898,-122.64974,4.5,837,1,"Restaurants, Fast Food, Food, Sandwiches, Food Trucks, Burgers"
403,5z_6Kx3648C4tfBzD0FgRw,Swank Restaurant,Portland,OR,97205,45.5181701605,-122.6817070818,3.5,227,1,"American (New), Whiskey Bars, Nightlife, Beer, Wine & Spirits, Food, Bars, Restaurants, Breakfast & Brunch, Wine Bars, Cocktail Bars"
404,J-z1GyLzbPMGNILOG1o6KA,7-Eleven,Portland,OR,97201,45.5134506,-122.6829962,3.5,7,0,"Food, Convenience Stores"
405,g-L_Xsg8OEBMDraWn3dIgA,The Hungry Wolf,Portland,OR,97214,45.5218745,-122.6375179,4.5,6,0,"Food Trucks, Restaurants, Food, Italian, Specialty Food, Pasta Shops"
406,h1UrUO5BjHavS_WwWq5SAQ,Fills Donuts,Portland,OR,97205,45.5221917,-122.6842299,4.5,33,1,"Bakeries, Restaurants, Breakfast & Brunch, Food, Donuts"
407,amQF0OzN53xCmEY_p5LYDA,BAMBU,Portland,OR,97206,45.498965,-122.579414,3.5,103,1,"Coffee & Tea, Bubble Tea, Food, Juice Bars & Smoothies, Desserts"
408,83-gyOU7gJ4_JbqvdrZtug,Asap Market,Portland,OR,97206,45.4696331,-122.6103658,2.5,5,1,"Food, Grocery"
409,q6EueeJSWDZueCjtXOVq0w,Cup and Saucer,Portland,OR,97211,45.5625849,-122.6347243,3.0,162,0,"Restaurants, Delis, Nightlife, Coffee & Tea, Bars, Food"
410,bGWJ5orNnI53cB11-x9RNA,Plaid Pantry,Portland,OR,97203,45.5931963,-122.7574636,2.5,11,1,"Convenience Stores, Food"
411,A2tR7Mh8JvUB77TPKp6xAQ,Suzette,Portland,OR,97211,45.5593321,-122.6354865,4.5,37,0,"Desserts, Food, Creperies, French, Food Stands, Restaurants"
412,9extUG5sUSsmS0J-1BGPvA,Kruger's Farm Stand- St Johns,Portland,OR,97203,45.587571,-122.7423628,3.0,14,0,"Active Life, Summer Camps, Food, Specialty Food, Fruits & Veggies"
413,ShRn28A6Jhf18iYK37VXVw,Fortune Pizza,Portland,OR,97206,45.497225,-122.608504,3.0,16,0,"Chicken Wings, Restaurants, Chinese, Pizza, Asian Fusion"
414,i7UQlF1wJnQ7CZe4-BJ3FA,Genie's Cafe,Portland,OR,97202,45.5049996,-122.654464,4.0,512,1,"Nightlife, Burgers, Bars, Cocktail Bars, American (New), Breakfast & Brunch, Restaurants"
415,-wYVSpfXpqojw3WjoUFIUQ,Century Bar,Portland,OR,97214,45.5210106,-122.6558826,3.0,185,1,"Venues & Event Spaces, Sports Bars, Vegan, Cocktail Bars, Event Planning & Services, Bars, Restaurants, Nightlife, Sandwiches"
416,w-3cS-QPVPEIFxDc82Vi9Q,Mandarin Palace,Portland,OR,97223,45.4719706893,-122.7722816635,3.0,133,1,"Karaoke, Chinese, Nightlife, Lounges, Bars, Restaurants, Food"
417,7DPJgMPt7og9rZxH_nI9Bw,Bridge City Cafe - Lloyd Center,Portland,OR,97232,45.5325514,-122.6535944,3.0,44,1,"Restaurants, Bakeries, Food Delivery Services, Sandwiches, Food"
418,h5DRmPpKPN8Ekd_XVnkLtg,Krua Bangkok,Portland,OR,97201,45.5096006945,-122.6814830303,4.0,73,1,"Food Stands, Thai, Restaurants"
419,i03bXqvXUmsuzcbQBAbeUQ,The Press Club,Portland,OR,97202,45.5036382,-122.6392545,4.0,90,0,"Bars, Cafes, French, Music Venues, Nightlife, Restaurants, Arts & Entertainment"
420,cmSo1w7ZPCxSRHbyrFboTg,H Mart,Portland,OR,97214,45.5166299,-122.6304684,3.5,69,1,"International Grocery, Grocery, Food"
421,O1B-lQ37RoHLis-orL43Cg,Red Robin Gourmet Burgers and Brews,Portland,OR,97220,45.5735774,-122.5593626,3.0,209,1,"American (Traditional), Restaurants, Nightlife, Bars, Burgers"
422,RpECLdpXyIW650_aX6zlIg,Thai Smile Restaurant,Portland,OR,97209,45.5265674,-122.68816,3.5,86,0,"Thai, Salad, Restaurants"
423,oMImgplsjKiPiqusjjFt4A,Cafe 700,Portland,OR,97232,45.530937,-122.6581601,4.5,6,1,"Convenience Stores, Food, Restaurants"
424,0nMbLN0B5I-2tNnQLSo86w,Starbucks,Portland,OR,97230,45.533837,-122.5373404,3.0,19,1,"Bakeries, Coffee & Tea, Food"
425,zwCnvvz9eEgRsnmqijRDbA,The Alameda Cafe,Portland,OR,97213,45.5483756,-122.6152097,3.5,86,0,"American (New), Restaurants, Breakfast & Brunch, Gluten-Free, Vegan"
426,RG-kI5mO71jU9_wVEVFl-Q,Ramy's Lamb Shack & Catering,Portland,OR,97215,45.5162412,-122.5975269,3.5,11,1,"Food, Food Trucks"
427,4g-FBRZEGF0XylvUJsj5Fg,Spunky Monkey House Of Coffee,Portland,OR,97232,45.5234797,-122.6456455,4.5,60,0,"Breakfast & Brunch, Food, Coffee & Tea, Local Flavor, Restaurants, Bagels"
428,NnjawUdESzqxOYYPTcumSA,Blackbird Wineshop,Portland,OR,97213,45.5485372,-122.6188187,4.5,79,1,"Cheese Shops, Nightlife, Specialty Food, Bars, Food, Beer, Wine & Spirits, Wine Bars"
429,mMmmux5scikpdWeV0Hnu0g,Shari's - Delta Park,Portland,OR,97217,45.5930205,-122.6812144,3.0,99,1,"Sandwiches, Breakfast & Brunch, Diners, Restaurants, American (Traditional)"
430,xpw76c97LbTqx5u7NttEng,Denny's,Portland,OR,97223,45.4562601,-122.7831034,3.5,20,0,"Diners, Restaurants, American (Traditional), Breakfast & Brunch"
431,qq1eSx2zT9fuDeUyhabf0Q,Herb Stomp,Portland,OR,97214,45.5166942,-122.6228227,4.5,24,1,"Food, Tobacco Shops, Specialty Food, Herbs & Spices, Shopping"
432,0X9V4TdHShSPawVbCgaiMQ,Johnson Creek Market,Portland,OR,97222,45.4627588,-122.6165081,3.5,6,1,"Food, Convenience Stores"
433,yZ_kkTJKYGX7FEpyrROnew,Mariscos Las Islas Marias,Portland,OR,97266,45.5023667,-122.579078,3.5,42,1,"Seafood, Mexican, Restaurants"
434,HsCOLADqK2VbIA8VKQHrDw,Thai Lily Restaurant,Portland,OR,97229,45.5271363535,-122.8154554011,3.5,72,1,"Restaurants, Thai"
435,eRx5HTVhaRq71zLqQYsotA,Jook Joint,Portland,OR,97205,45.5211177,-122.681491,5.0,39,0,"Restaurants, Asian Fusion, Food Trucks, Food, Barbeque"
436,sXrnIoPdbp2B4IHnSxpPNQ,Pelindaba Lavender,Portland,OR,97209,45.5262865,-122.6829622,5.0,6,0,"Herbs & Spices, Pet Stores, Jewelry, Flowers & Gifts, Personal Shopping, Pets, Local Flavor, Specialty Food, Beauty & Spas, Shopping, Home & Garden, Gift Shops, Food, Cosmetics & Beauty Supply"
437,oY0ycUd8cyQi0vStDaNlIA,Angel's Cabana,Portland,OR,97205,45.5206583869,-122.6815372423,5.0,6,0,"Cuban, Caribbean, Mexican, Latin American, Food Stands, Restaurants"
438,YYLPcw7tW1_LvGL2ppFrWw,North Bar,Portland,OR,97206,45.5051077,-122.6107461,4.0,102,1,"Dive Bars, Bars, Nightlife, Pubs, Restaurants"
439,wbqh7idQgUwcn6hj_2oF6A,Minizo,Portland,OR,97205,45.5204116,-122.6808017,4.0,10,0,"Street Vendors, Food Stands, Japanese, Food, Restaurants"
440,vX-vi_g0s7c_Ytl3dqQtbA,Enat Kitchen,Portland,OR,97217,45.5625116,-122.6697737,4.5,170,1,"Ethiopian, Restaurants"
441,rb13R76dgYaqTq2LRhp9ww,Sloan's Tavern,Portland,OR,97227,45.5407616,-122.6674601,4.0,54,1,"Gay Bars, American (Traditional), Nightlife, Bars, Dive Bars, Restaurants"
442,oFgmYjWWvpPio6p9DBuDng,Quan Chuc,Portland,OR,97206,45.4980501,-122.5804366,3.0,12,0,"Restaurants, Vietnamese"
443,11_lsNdklk6eLuPDIeFEhA,Proper Eats,Portland,OR,97203,45.5903293,-122.7553919,4.0,237,0,"Food, Organic Stores, Grocery, Restaurants, Vegetarian, Vegan"
444,h030FOSoiGNFEMvZbFZ33Q,Pedalounge,Portland,OR,97214,45.5053504,-122.6535049,5.0,39,1,"Food, Hotels & Travel, Breweries, Tours"
445,MgEpTPU2HpWsNCRtX0ou0Q,Thai Yummy,Portland,OR,97239,45.4990733,-122.6904574,5.0,113,1,"Street Vendors, Restaurants, Food, Thai, Food Trucks"
446,uDYF4-HotkN6ptisVHiwrA,Castagna Restaurant,Portland,OR,97214,45.5120103,-122.6474293,4.0,219,1,"Restaurants, Burgers, Modern European, American (Traditional), American (New)"
447,XvxbrfhzCZ4iLOjrcTi3Ww,Wasabi Sushi PDX,Portland,OR,97232,45.5323473,-122.6282818,4.0,58,1,"Japanese, Restaurants, Sushi Bars"
448,7EbGTD7ZF30vEFBiHyN_0A,McCormick & Schmick's Harborside at the Marina,Portland,OR,97201,45.5094238,-122.6732839,3.0,558,1,"Seafood, Restaurants, American (New), Steakhouses, American (Traditional)"
449,EiG49nLf6uE2P9bAuBQfXg,Helser's,Portland,OR,97211,45.5589952606,-122.6488757947,4.0,584,0,"Nightlife, Bars, Sandwiches, Restaurants, Cocktail Bars, Breakfast & Brunch"
450,hJIpdNqYeqjow7jppOLlEw,Rite Aid,Portland,OR,97225,45.515245,-122.792062,2.0,25,1,"Convenience Stores, Drugstores, Shopping, Food, Photography Stores & Services"
451,V16Mua3SnXLt95N4EEolTw,Smallwares,Portland,OR,97213,45.5485049,-122.6156771,3.5,217,0,"Tapas/Small Plates, American (Traditional), Asian Fusion, American (New), Restaurants"
452,l5_jd7YrD3NQeKu7AGQh5Q,Operation Wings,Portland,OR,97206,45.495908,-122.608414,4.5,16,0,"Food Trucks, Restaurants, Food, Chicken Wings"
453,fQNWDHq1Sw1ffb1A7cDfSQ,Lung Fung Restaurant,Portland,OR,97217,45.5773009,-122.6876155,2.0,65,0,"Caterers, Restaurants, Event Planning & Services, Chinese"
454,Wnlq7JQMLvPkFcB86QchGg,Streetcar Bistro & Tap Room,Portland,OR,97209,45.5316314697,-122.6826019287,3.5,150,0,"Restaurants, Bars, American (Traditional), Beer, Wine & Spirits, Food, Arts & Entertainment, American (New), Nightlife, Music Venues"
455,49kxiGWLzuCdQ5yXcCptaw,Fairley's Pharmacy,Portland,OR,97213,45.54832,-122.5884958,4.0,41,1,"Coffee & Tea, Food, Shopping, Ice Cream & Frozen Yogurt, Drugstores"
456,_X-muxAfD-dqxcG9d4jrTQ,Stumptown Sliders,Portland,OR,97204,45.5212143,-122.6756256,4.5,8,0,"Food, Burgers, Breakfast & Brunch, Food Trucks, Restaurants"
457,qA0Cq3rLJUisLZ8SAED5DA,Avocadamama,Portland,OR,97218,45.5612127,-122.6200325,3.5,5,1,"Food Trucks, Food, Restaurants, Vegan"
458,ca3JH3PfOwIuvkgwLRlPJg,Sunset Fried Chicken Portland,Portland,OR,97214,45.5118546,-122.6259367,4.0,16,0,"Restaurants, Southern, Sandwiches, American (Traditional)"
459,JgjMHbZ4A407ZOmvEEoa6g,Urban German Wursthaus,Portland,OR,97203,45.588782,-122.761261,4.0,84,1,"German, Restaurants"
460,pdYz4Je0AhtA2PRtW45lfA,Assembly Brewing,Portland,OR,97206,45.4908794,-122.6003756,4.0,195,1,"Bars, Restaurants, Pizza, Brewpubs, Breweries, Food, Nightlife"
461,gtqzIb8Drb6yvbohwL8D-g,"Hi-Lo Hotel, Autograph Collection",Portland,OR,97204,45.52035,-122.675135,4.0,104,1,"Hotels, Restaurants, Nightlife, Venues & Event Spaces, Hotels & Travel, Bars, Event Planning & Services"
462,nkqaLepNTSrUYuZkzbBR5A,Ole Frijole,Portland,OR,97211,45.5630384,-122.6208805,4.0,153,1,"Mexican, Tacos, Restaurants, Breakfast & Brunch"
463,LujvJYEw75dgAkBup2KhNg,Flavour Spot,Portland,OR,97217,45.5768132,-122.6906813,4.0,155,1,"Food, Waffles, Food Stands, Coffee & Tea, Vegan, Restaurants, Food Trucks"
464,Dqd7NpbF6AnI18RIP1XNig,Slate,Portland,OR,97227,45.5519524,-122.6752814,4.5,24,0,"American (New), Nightlife, Bars, Breakfast & Brunch, Restaurants, Gastropubs"
465,dIGofD0rT5wOWmMbXVLqAA,Cackalack's Hot Chicken Shack,Portland,OR,97229,45.5541261886,-122.8357757312,3.5,87,0,"Chicken Wings, Chicken Shop, Restaurants"
466,mkngYRCe4aNK8aAlZNZvBQ,Ha VL,Portland,OR,97266,45.50263,-122.578504,4.5,293,1,"Soup, Restaurants, Sandwiches, Vietnamese"
467,3mX3Z_og-fSaE94834bAWA,Les Caves: A Winery Bar,Portland,OR,97211,45.559631,-122.647472,4.5,60,1,"Bars, Nightlife, Food, Beer, Wine & Spirits, Wine Tasting Room, Arts & Entertainment, Wine Bars, Wineries"
468,yJXJyGZpBhoBf3G-14RT_Q,The Vitamin Shoppe,Portland,OR,97204,45.5172418,-122.6768908,5.0,7,0,"Vitamins & Supplements, Health Markets, Shopping, Food, Specialty Food"
469,huErclb5v4o1Ld9_9hZXDg,Bentley’s Bagels,Portland,OR,97209,45.5294974,-122.6944219,4.5,47,1,"Food, Bagels"
470,dwt5QjusCtuW3-ucIIUbvQ,Montavilla Brew Works,Portland,OR,97215,45.5193398,-122.5833908,4.5,41,1,"Pubs, Nightlife, Food, Bars, Breweries"
471,E28CUGotmmrz4xsiauqKnw,Honduran Tamale Factory,Portland,OR,97217,45.5620486,-122.6955575,3.5,12,0,"Restaurants, Latin American, Food Stands, Caribbean, Food Trucks, Food"
472,UU1VB0-TdLLQzR0_DGLQ1g,QDOBA Mexican Eats,Portland,OR,97205,45.517642,-122.67841,3.0,77,1,"Fast Food, Event Planning & Services, Caterers, Restaurants, Mexican"
473,9JqVmVtv3MUj1GGbqFOGXA,Rimsky-Korsakoffee House,Portland,OR,97214,45.517778,-122.6540182,3.5,467,1,"Arts & Entertainment, Desserts, Coffee & Tea, Restaurants, Nightlife, Food, Music Venues"
474,RA2Wg5Cio8xfcK9FE3ScLg,La Salsa Mexican Grill,Portland,OR,97206,45.5052459,-122.6008666,3.5,15,0,"Mexican, Restaurants"
475,9U9RUKDf6a8vadpBGDMQSQ,Fuego Food Carts,Portland,OR,97205,45.5190822,-122.6794909,4.0,21,1,"Mexican, Restaurants, Food Stands, Vegan"
476,qRFM_PLwkz-S6HtsYI_2PQ,Taqueria Rico Taco,Portland,OR,97233,45.5213051,-122.4774686,3.5,114,1,"Mexican, Restaurants"
477,NEUSWxsK9aAEkiZqfqiykQ,Woodrow's,Portland,OR,97227,45.5517566,-122.6663433,4.5,7,0,"Street Vendors, Food"
478,W2mOycFdIj0ZmMtA4tqohg,Egyptian Food,Portland,OR,97205,45.5204001814,-122.6807702333,4.0,12,0,"Middle Eastern, Food Trucks, Restaurants, Food, Egyptian, Halal, Specialty Food, Ethnic Food"
479,ea8hfj9Xmr_HF3MGlNxxzQ,Plaid Pantry,Portland,OR,97201,45.5135811657,-122.6830594998,2.5,10,1,"Food, Convenience Stores"
480,8nkNfbKDFn27p0ZDPGKihw,Stanford's Restaurant & Bar,Portland,OR,97218,45.588909,-122.593986,4.0,214,0,"Steakhouses, Seafood, Restaurants, American (New), American (Traditional)"
481,n16Hf7v3TpWKwjpKoV_01A,Bullard,Portland,OR,97205,45.5205799189,-122.6804899424,4.5,148,1,"Restaurants, Tapas/Small Plates, Barbeque, Nightlife, Bars, Sandwiches, Tex-Mex"
482,boxxtYkfzxYOzYto-wqNeA,Little Beast Brewing Beer Garden,Portland,OR,97202,45.5045374,-122.6292044,4.0,90,1,"Food, Beer Gardens, American (Traditional), Beer Bar, Bars, Nightlife, Breweries, American (New), Restaurants"
483,Uh5jsC5QDRAB8dRn3GZfxA,Noah's NY Bagels,Portland,OR,97224,45.3940121834,-122.7476356635,4.0,7,0,"Food, Bagels, Restaurants"
484,cWvljRUfcclGwihlM_dTbA,Ole Latte Coffee,Portland,OR,97201,45.5107943,-122.6818585,4.5,73,1,"Coffee & Tea, Flowers & Gifts, Food, Breakfast & Brunch, Shopping, Gift Shops, Restaurants"
485,kkhdlv0-cPqzYwg8B4PIpQ,Palio Dessert & Espresso House,Portland,OR,97214,45.508287,-122.6487748,3.0,346,1,"Desserts, Breakfast & Brunch, Coffee & Tea, Food, Restaurants"
486,LtmKb4Om7ue9lVhX1Xb3hA,Tryon Creek Grill & Sports Bar,Portland,OR,97219,45.4623009,-122.684518,3.5,92,1,"Nightlife, American (Traditional), Sports Bars, Restaurants, Bars"
487,48-tBsPQlSw5VD0IX6CxSg,Baby Doll Pizza,Portland,OR,97214,45.5195272,-122.6364651,4.5,407,1,"Pizza, Restaurants"
488,uDeyDoFTsEe6B9Ld1F1UKg,Noah's Bagels,Portland,OR,97214,45.5121932,-122.6277759,2.5,16,0,"Coffee & Tea, Food, Bagels, Restaurants"
489,9SgqGk0FL8Nsks_D00TwHg,Red and Black Cafe,Portland,OR,97214,45.519954,-122.653443,3.0,146,0,"Bagels, Venues & Event Spaces, Food, Restaurants, Vegan, Coffee & Tea, Beer, Wine & Spirits, Event Planning & Services"
490,EnTLBzN6aQV-TKGIOABbXA,Zibas Pitas,Portland,OR,97205,45.5204116,-122.6808017,4.0,43,0,"Mediterranean, Restaurants, Food Stands, Ethnic Food, Specialty Food, Food"
491,9EcPMcIVSLjj5yeVOKaWDg,Safeway,Portland,OR,97201,45.515960885,-122.6845344818,2.5,124,1,"Shopping, Drugstores, Grocery, Food"
492,7O3rMVJ07cbtrYzoHhLR-A,Buffalo Wild Wings,Portland,OR,97204,45.5185331,-122.6761788,3.0,270,1,"American (Traditional), Bars, Chicken Wings, Sports Bars, Restaurants, Nightlife"
493,Q_A8Sr23g4vyrw3XXaWSRw,Red Robin Gourmet Burgers and Brews,Portland,OR,97223,45.4473306,-122.7789219,2.5,194,1,"American (Traditional), Restaurants, Burgers"
494,HdwCnhu5wViizswxUGk0SA,Kargi Gogo,Portland,OR,97211,45.559211,-122.633996,4.5,113,0,"Restaurants, Georgian, Chinese"
495,SPFX8RrW0KxmeZmCyYWY8A,Hi-Wheel Fizzy Wine Co,Portland,OR,97211,45.5716183813,-122.6468280479,4.5,66,0,"Local Flavor, Food, Nightlife, Wine Bars, Breweries, Bars"
496,abl9mcFLfIUAqcXjlb2Jgw,Metrovino,Portland,OR,97209,45.5313623759,-122.6826627674,3.5,123,0,"American (Traditional), Restaurants, American (New)"
497,a3eMeyMEXtpAn2QkA9X7nw,The Rockin' Crab & Boiling Pot,Portland,OR,97266,45.5018028104,-122.5774115705,3.5,282,1,"Seafood, Hot Pot, Cajun/Creole, Southern, Restaurants"
498,m46F4XnG3DFVhUu0LOUIzg,Travnik Bosnian Grill,Portland,OR,97266,45.5038181705,-122.5670391523,5.0,12,0,"Coffee & Tea, Mediterranean, Food, Desserts, Salad, Restaurants, Modern European, Sandwiches"
499,cAlM1eaQ6CVaZ58g4LdOoQ,Smart Foodservice Warehouse Stores,Portland,OR,97214,45.5097896,-122.6584245,4.0,21,1,"Professional Services, Wholesalers, Specialty Food, Grocery, Restaurant Supplies, Fruits & Veggies, Wholesale Stores, Bakeries, Food, Shopping"
500,mCdKZJ0B0aKwItpcKVnzTA,Rue,Portland,OR,97214,45.5222646498,-122.6553576889,4.0,54,0,"Seafood, Tapas/Small Plates, Bars, Cocktail Bars, Restaurants, Nightlife, French"
501,Yd8KSZbV51fwq6_rmXHJNw,The Sugar Shop,Portland,OR,97206,45.495768,-122.608463,3.5,12,0,"Food Trucks, Desserts, Bakeries, Food"
502,Pk7Bx8DeBieskgnr9_B_cQ,Ngoc Han Bun Bo Hue,Portland,OR,97216,45.5078786,-122.5785353,4.0,8,0,"Vietnamese, Restaurants"
503,xA1aA6T5m1_4XVemkY2RRQ,Gelato Maestro,Portland,OR,97202,45.5014206,-122.6583247,4.0,9,1,"Desserts, Food, Gelato, Ice Cream & Frozen Yogurt"
504,WSkc53VTIbO1PLJAsOblSA,Papa Murphy's,Portland,OR,97209,45.5232756,-122.692642,3.5,7,1,"Restaurants, Pizza"
505,WbThrBsY_7rjAOuz2-Duug,Heart Pizza,Portland,OR,97205,45.5226083,-122.6844218,4.0,38,0,"Pizza, Italian, Breakfast & Brunch, Restaurants"
506,_SxhzxMg8A3D6KfWF21O2A,Giusto Farms,Portland,OR,97230,45.5478716,-122.4956206,5.0,5,1,"Specialty Food, Food, Fruits & Veggies"
507,Jelhk2X7EJIMwUlO8RAN5g,Fuller's Burger Shack,Portland,OR,97220,45.5731634,-122.5575475,4.0,48,1,"American (Traditional), American (New), Burgers, Restaurants"
508,7lZBRWIBam0oAwFFOBvBhA,Belmont Station,Portland,OR,97215,45.5191128,-122.6159604,4.0,283,1,"Nightlife, Bars, Beer Bar, Beer, Wine & Spirits, Beer Gardens, Food"
509,4ndFT3PXgMADv4DuLHSXKg,Jack in the Box,Portland,OR,97233,45.5189174205,-122.466121,2.0,26,1,"Fast Food, Tacos, Burgers, Mexican, Breakfast & Brunch, Restaurants"
510,GDu_-BsZQODxN-KXQDiGgA,TM Banh Mi,Portland,OR,97213,45.5347178,-122.5928633,4.5,102,1,"Bubble Tea, Food, Vietnamese, Restaurants, Sandwiches"
511,EZgqy67WKFlUQlqscPzByg,PDX Sliders,Portland,OR,97202,45.5049147306,-122.6335288212,4.5,317,1,"Burgers, Sandwiches, Restaurants"
512,lh9serZ_XmnSx_SU6NnBiA,Rice Junkies,Portland,OR,97211,45.5592070625,-122.6484456564,3.5,19,0,"Vegetarian, Gluten-Free, Vegan, Korean, Restaurants"
513,L3VEhypDYvpNFz2xmqPoNQ,Remote.ly,Portland,OR,97227,45.5467654,-122.6758436,4.5,14,1,"Home Services, Real Estate, Shared Office Spaces, Coffee & Tea, Food, Event Planning & Services, Venues & Event Spaces, Commercial Real Estate"
514,2nbPJZIKQu4Lly067SZxMg,Green Wok,Portland,OR,97219,45.4449232,-122.7274646,4.0,76,0,"Chinese, Vegetarian, Sushi Bars, Vegan, Restaurants"
515,v_3D5dTh0KgyalrAoP3Bvg,Alder Pastry and Dessert,Portland,OR,97214,45.5227802,-122.640486,4.5,73,0,"Bakeries, Food, Desserts"
516,5wgKjjjG35D2DStRKj5uJA,Alexis Restaurant,Portland,OR,97209,45.5233188,-122.6726978,4.0,118,0,"Greek, Restaurants, Food, Mediterranean, Diners, Grocery"
517,2xcfg2ibmxMNuZABFEt_lQ,Club 21,Portland,OR,97232,45.5267436,-122.6447027,4.0,88,0,"Nightlife, Restaurants, Dive Bars, American (Traditional), Bars"
518,IftD115p3oomGgPS1Ih04g,Couture Ultra Lounge,Portland,OR,97209,45.5236671,-122.6743935,3.0,81,0,"Restaurants, Nightlife, Bars, Lounges, American (New)"
519,FBYUVr3efRK240bM8Y9n_g,Bob's Handy Pantry,Portland,OR,97202,45.4987613,-122.653743,3.5,15,1,"Convenience Stores, Food"
520,aIrHvk3wb1mxHcYbyf7lxw,Papa Murphy's,Portland,OR,97212,45.5481356,-122.6215853,3.0,8,1,"Pizza, Restaurants"
521,aQsC6lJOsYNKIMbkVSY91A,Hollywood Farmers Market,Portland,OR,97213,45.536473,-122.617653,4.5,36,1,"Bakeries, Food, Farmers Market"
522,2LpWVkJMEg12w8ynJ2Jaag,Hale's Restaurant,Portland,OR,97267,45.395881,-122.615747,3.5,110,0,"Breakfast & Brunch, Restaurants"
523,tqywh0jPNukMEvWlO7QufQ,Eb & Bean,Portland,OR,97202,45.5047129,-122.6341964,4.5,116,1,"Food, Ice Cream & Frozen Yogurt, Vegan, Restaurants"
524,fzfDmwHJCiLat4bZ5gffbQ,Market Restaurant,Portland,OR,97201,45.511598,-122.678607,4.0,13,0,"American (New), Restaurants"
525,xKTSG4jKSj25SUmvPavLdw,Caffe Destino,Portland,OR,97212,45.5483745,-122.6519651,4.0,66,1,"Food, Restaurants, Breakfast & Brunch, Coffee & Tea, Bakeries, Sandwiches"
526,Tq-gDI9m3Bkbe0Fq4Os06g,Rad Fare,Portland,OR,97205,45.5211344,-122.6813363,4.0,5,0,"Food Trucks, Restaurants, Wraps, Burgers, Food"
527,eUbq0uNxRlXQ6sy7phM7yA,Lechon,Portland,OR,97204,45.521264,-122.670947,4.5,1305,1,"Tapas Bars, Restaurants, Cocktail Bars, Nightlife, Bars, Latin American, Argentine, Southern"
528,g-7dJIL_EMfyRQNYeOCBeQ,Westward Whiskey - PDX,Portland,OR,97218,45.58909,-122.5934364,4.5,8,1,"Cocktail Bars, Whiskey Bars, Distilleries, Food, Nightlife, Bars"
529,tJj3EJKMJGQWElCPQ_5acA,Bridges Cafe & Catering,Portland,OR,97212,45.5422159,-122.6613476,4.0,265,0,"Breakfast & Brunch, American (Traditional), Caterers, Event Planning & Services, Restaurants"
530,gUJYDMLaeUv9h2I4AWZR9Q,Pho Saigon Xua,Portland,OR,97266,45.4842142,-122.5800716,4.5,5,1,"Vietnamese, Restaurants"
531,nVM8SLX5Yp3E6NNmL7tAPQ,Fifty Licks,Portland,OR,97202,45.503615,-122.6450414642,4.0,478,1,"Food Trucks, Ice Cream & Frozen Yogurt, Food"
532,YjmT2LbV-hrXswXvxLCRYA,Hash It Out,Portland,OR,97203,45.5875709,-122.7423628,4.0,42,0,"American (Traditional), Restaurants, Vegan, German, Breakfast & Brunch"
533,L7tamhi_RO733rSI9d6dTQ,Nini Braids,Portland,OR,97221,45.4940477,-122.7323946,4.5,6,0,"Hair Extensions, Senegalese, Hair Stylists, Beauty & Spas, Hair Salons, African, Restaurants"
534,N9-vH0gxMLZgdDPnDK2MiQ,JB's Nightclub & Lounge,Portland,OR,97217,45.6129317,-122.6753587,3.0,13,1,"Lounges, Music Venues, Arts & Entertainment, Beer, Wine & Spirits, Bars, Food, Nightlife"
535,xMppT199ikLt2tHcZPjDFA,Taco Bell,Portland,OR,97225,45.48683,-122.743,2.0,26,1,"Restaurants, Mexican, Tacos, Breakfast & Brunch, Fast Food, Tex-Mex"
536,zI8eOp6Bks0Qd95ncMd4nw,McPeets Portland Pub,Portland,OR,97213,45.5484473,-122.6169935,4.0,59,1,"Restaurants, Pubs, Burgers, Sandwiches, Bars, Nightlife"
537,W5KZC9eDWwX8IX7kM7cssQ,Tom's Pizza & Sports Bar,Portland,OR,97230,45.5279561,-122.4774688,3.0,68,0,"Nightlife, Restaurants, Food, Sports Bars, Bars, Pizza, Desserts"
538,As9MxRxkjIv26yFci8_rVg,Kelli's Cafe,Portland,OR,97236,45.5045587,-122.5115397,3.0,10,1,"Cafes, Restaurants"
539,9gOBmODi5-XQ0EbIxkx2MQ,Leaky Roof,Portland,OR,97201,45.5174282,-122.6902157,4.0,284,1,"Pubs, Bars, Comfort Food, Breakfast & Brunch, Gastropubs, American (New), Restaurants, Nightlife, Burgers, Food"
540,HYdQGBATeyhhJw5SUfTLqQ,Pizza Hut,Portland,OR,97206,45.4976464252,-122.5814739426,2.0,12,1,"Chicken Wings, Italian, Restaurants, Pizza"
541,a0QYBXNPykrcEZE0Wqmorg,Harry's Fresh Deli and Pizzeria,Portland,OR,97230,45.5632603,-122.5343999,4.0,7,0,"Restaurants, Pizza, Delis"
542,5wwNQdCeRYgm2CZqC2yH8w,Super Torta,Portland,OR,97206,45.4789842,-122.6049726,3.5,133,1,"Restaurants, Mexican"
543,ez0kkX8ORsk-5k9yG4NpUw,Thai Noon Restaurant,Portland,OR,97211,45.5591856,-122.6382797,3.5,273,1,"Nightlife, Thai, Specialty Food, Food, Ethnic Food, Bars, Salad, Restaurants, Cocktail Bars"
544,x00fG-RbWZDykf7xhNlHgw,Plainview Grocery & Auto Parts,Portland,OR,97231,45.608944,-122.8627466,5.0,5,1,"Automotive, Grocery, Food, Auto Parts & Supplies"
545,Wm3pOIWzjzttU7TgGGyM7Q,La Taq,Portland,OR,97211,45.562901,-122.648394,4.0,222,1,"Tex-Mex, Bars, Nightlife, Restaurants, Mexican"
546,3ROSyyzUPPh-45cqsgadcA,NE Creperie,Portland,OR,97201,45.509458,-122.682043,3.0,7,1,"Restaurants, Caterers, Street Vendors, Food Stands, Food Trucks, Food, Event Planning & Services"
547,GzuWpn697Cz-VBPCUeecVg,Burger King,Portland,OR,97214,45.5117318,-122.661309678,2.0,53,0,"Burgers, Fast Food, Restaurants"
548,U_Zl6zKQyQvug9aVyB0KJw,Dots Cafe,Portland,OR,97202,45.5033895,-122.6400161,4.0,400,1,"Bars, Restaurants, Breakfast & Brunch, Dive Bars, Beer, Wine & Spirits, Burgers, Food, Vegan, Lounges, Sandwiches, Nightlife"
549,dSQFub2AdIsDWsfST2QYrw,Kelvin's Doner,Portland,OR,97201,45.520483477,-122.6823487263,4.0,11,0,"Food, Restaurants, Cafes, Turkish, Food Trucks, German, Fast Food"
550,VQn3GpNbGVqcb2ylb32_5g,Siam Grill,Portland,OR,97220,45.5338372,-122.5559413,4.0,192,1,"Restaurants, Noodles, Thai, Food Delivery Services, Salad, Food"
551,_w_LULQYaLNPeaqyzSxoJQ,Blackberry Yogurt Lounge,Portland,OR,97214,45.5231622,-122.6437679,4.0,8,0,"Venues & Event Spaces, Desserts, Food, Event Planning & Services, Ice Cream & Frozen Yogurt"
552,QATGPulHN54pA5RTXHLDbA,Franz Bakery Outlet Store,Portland,OR,97266,45.4760166,-122.5439346,4.0,11,1,"Restaurants, Bakeries, Food"
553,jADZsw2eNxXF15xjibYfVw,La Superior,Portland,OR,97217,45.577297,-122.69508,3.5,68,0,"Specialty Food, Restaurants, Ethnic Food, Food, Mexican"
554,OHo-RIvp2FVCbYGAolsq-g,BeerQuest Walking Tours,Portland,OR,97204,45.516964,-122.6732897,4.5,36,1,"Breweries, Walking Tours, Beer Tours, Bars, Pubs, Nightlife, Hotels & Travel, Beer Bar, Tours, Food, Bar Crawl"
555,SS7dMwnMMMydfvWcmjwRBg,Alter Ego Cider,Portland,OR,97214,45.5082200696,-122.658954354,5.0,13,1,"Arts & Entertainment, Beer, Wine & Spirits, Wineries, Breweries, Cideries, Wine Tasting Room, Food"
556,szCpLKuocAQnErkNiElHNw,Alberta Street Pub,Portland,OR,97211,45.5590007866,-122.654743646,4.0,147,1,"Beer Bar, Bars, Arts & Entertainment, Restaurants, Pubs, Music Venues, Cocktail Bars, Nightlife, American (Traditional), Tapas/Small Plates, American (New)"
557,ayQ2SN9428u_b-ojhD0COg,Kure Juice Bar,Portland,OR,97204,45.5215004,-122.6724068,4.0,29,1,"Organic Stores, Restaurants, Vegan, Food, Acai Bowls, Juice Bars & Smoothies"
558,OCQWUtbRTkk0HqbjjZb0UA,La Costita,Portland,OR,97236,45.4923275,-122.4883038,4.0,33,0,"Mexican, Restaurants"
559,Fc5XHcdc3pwa0-HaNyKLRg,Rolling River Spirits,Portland,OR,97214,45.513937,-122.6579914,4.5,18,1,"Distilleries, Beer, Wine & Spirits, Food"
560,wU1_aZ8ULSf9tO0ToyHoCA,Bread and Ink Cafe,Portland,OR,97214,45.511941,-122.6265894,3.5,507,1,"Desserts, Breakfast & Brunch, American (New), Burgers, American (Traditional), Diners, Food, Restaurants"
561,3BRNu8M9c8HkfkbKqpnWzQ,Garagiste Wine Bar,Portland,OR,97217,45.5627795,-122.679831,5.0,57,0,"Desserts, Wine Tasting Room, Food, Arts & Entertainment, American (New), Nightlife, Wine Bars, Pubs, Gastropubs, Wineries, Restaurants, Bars, Salad"
562,ztvWkrzw8DLOIBikIuAChw,Ben & Jerry’s,Portland,OR,97204,45.5181431909,-122.6787163965,3.0,26,1,"Ice Cream & Frozen Yogurt, Desserts, Custom Cakes, Food, Event Planning & Services, Caterers"
563,8bTKkRCLv0eRwiTDbUpEkQ,The Lobby Bar At The Marriott,Portland,OR,97201,45.5125471134,-122.6758796743,4.0,17,0,"Nightlife, Bars, Whiskey Bars, American (New), Food, Restaurants, Lounges"
564,GdhT2vJ0a8FQ9F-ksySgCQ,Rip City Grill,Portland,OR,97206,45.505216,-122.6008952,4.5,87,0,"American (Traditional), American (New), Caterers, Steakhouses, Event Planning & Services, Sandwiches, Barbeque, Restaurants"
565,GHW8yU03OLKVppxnM-GYQw,Miyamoto Sushi,Portland,OR,97215,45.5194389,-122.5802261,4.0,343,1,"Restaurants, Sushi Bars, Japanese"
566,0bhFRXZfuXpU7r2H6M-sEQ,Poblano Pepper,Portland,OR,97215,45.5164178,-122.6181341,4.5,59,1,"Food Trucks, Food, Mexican, Restaurants, Food Stands"
567,ftc6tzrCBJVbuIi_yTedwQ,Walgreens,Portland,OR,97229,45.5264767423,-122.8154733406,2.0,40,1,"Drugstores, Food, Shopping, Beauty & Spas, Convenience Stores, Cosmetics & Beauty Supply"
568,Rqod0RjlP1Kle9qo2AYqHw,Overseas Taste,Portland,OR,97206,45.4904351,-122.5977636,4.5,19,1,"Food, Specialty Food, Meat Shops"
569,amza5c9G7ZSKg_lFAuVHGw,Thai Bungalow PDX,Portland,OR,97214,45.516638,-122.62887,4.5,21,1,"Food Trucks, Restaurants, Food, Thai"
570,AgJ-SoR2nfmKNVncSPaFqA,Dapper & Wise,Portland,OR,97202,45.5046719,-122.6328196,4.5,115,0,"Coffee Roasteries, Coffee & Tea, Food"
571,NeiegOitb0E01L9Ptz8jSg,Paper Bag Pizza,Portland,OR,97202,45.504588,-122.636204,4.5,23,0,"Food Trucks, Pizza, Food, Restaurants"
572,h5f3cbJLBcZmuHTw7UzA3A,Okie Rogie Perogies,Portland,OR,97202,45.4671826,-122.6533549,4.5,8,0,"Food, Restaurants, Polish, Food Trucks, Chicken Wings"
573,lnBtjouBKqOUl9Oo0VD5mQ,Henry Higgins Boiled Bagels,Portland,OR,97206,45.4893036,-122.5964903,4.0,270,1,"Restaurants, Breakfast & Brunch, Food, Bagels, Sandwiches"
574,VPk8exb5Uz2vEzSaGhoMVw,The Garrison,Portland,OR,97203,45.5910695,-122.7555935,4.5,27,1,"Bars, Brewpubs, Beer Bar, Pubs, Breweries, Food, Nightlife, Cocktail Bars"
575,npAstefwydB9pQz97rlUPw,Seoul Solong Tang,Portland,OR,97266,45.49778,-122.577495,4.0,12,0,"Korean, Restaurants"
576,ibDHzvK72FA199vbPvRhXg,Isla's Garden Cafe,Portland,OR,97239,45.4926205,-122.676317,4.5,15,0,"Vegan, Breakfast & Brunch, Restaurants, Cafes"
577,KB6X16tWGngZHlR2CVBWuQ,Utopia Restaurant & Lounge,Portland,OR,97220,45.5312921,-122.5793246,3.5,56,1,"Dive Bars, Vietnamese, Nightlife, Bars, Restaurants"
578,b4PgITSqSWoPhyJ-Mjko7Q,Mojo Crepes,Portland,OR,97266,45.5047712996,-122.5764445964,4.0,219,1,"Desserts, Food, Hot Dogs, Bubble Tea, Creperies, Restaurants"
579,KnMEVRQ-Ei0TwiUJDKF1FA,Tidbit Food Farm and Garden,Portland,OR,97202,45.504588,-122.636204,4.5,52,0,"Food Stands, Juice Bars & Smoothies, Restaurants, American (Traditional), Local Flavor, Food Trucks, Food"
580,soSelTAByp9n4vMIOswDVQ,No Bones Beach Club PDX,Portland,OR,97227,45.5513426,-122.6751785,4.0,329,0,"Vegan, Vegetarian, Nightlife, Restaurants, Bars"
581,MRFJgYbIgfEh3fIr7loEUA,Outlier Coffee,Portland,OR,97206,45.5054676,-122.6103291,5.0,12,1,"Food, Coffee & Tea"
582,vvkOZd11l5YSQCx8u2XYXw,Stevie's Chicken n' Waffles,Portland,OR,97211,45.5728365215,-122.6309394836,3.0,18,0,"Food Stands, Food, Restaurants, American (Traditional)"
583,BPOIEtIMqUkI7fk85Gfwrw,Eastern Cathay Restaurant and Lounge,Portland,OR,97220,45.5330661,-122.579454,3.0,39,1,"Chinese, Beer, Wine & Spirits, Bars, Restaurants, Lounges, Nightlife, Food"
584,6A1xmbfx_m8fnb0LCRKr8w,Green Apple Froyo & Bubble T,Portland,OR,97266,45.4907604,-122.5784646,3.5,70,1,"Ice Cream & Frozen Yogurt, Food, Bubble Tea"
585,eUFopO8orZgfHXsc1UNJGA,Artemis Cafe,Portland,OR,97202,45.505118,-122.652924,4.5,14,0,"Breakfast & Brunch, Restaurants, Fast Food, Food, Coffee & Tea"
586,JyzXtNYitcOaT_5oCj4GGQ,Stumptown Dumplings,Portland,OR,97211,45.5591045,-122.6501619,4.0,45,0,"Street Vendors, Food Stands, Restaurants, Dim Sum, Food Trucks, Food, Chinese"
587,9yTd0xIayscZ7S5Zkcb0XA,Verde Cocina,Portland,OR,97209,45.526928,-122.685177,3.5,310,0,"Breakfast & Brunch, Local Flavor, Mexican, American (New), Cocktail Bars, Gluten-Free, Restaurants, Nightlife, Bars"
588,12mxWT3BRuzFlm4jKr7-pA,Thai Chili Jam Restaurant,Portland,OR,97201,45.5168840109,-122.6871002688,4.0,199,1,"Restaurants, Salad, Food, Soup, Ethnic Food, Specialty Food, Thai"
589,5Yjlkds0PtfGhiNPMWIRIw,Beau Thai Restaurant,Portland,OR,97209,45.5282521,-122.6943786,3.5,185,1,"Restaurants, Thai"
590,OYdlAEaoxDxW4aR0wY4VFA,El catrin,Portland,OR,97233,45.5184381,-122.5121677,4.0,8,1,"Mexican, Restaurants"
591,BpzfxAG533sc8eRuPDv62Q,Nana's Corner Coffee and Grub,Portland,OR,97217,45.562797,-122.680824,3.5,22,0,"Food, American (Traditional), Food Court, Breakfast & Brunch, Food Stands, Coffee & Tea, Restaurants"
592,mlkOOPR87b8NKSahNrKYAw,Tacos Ramos,Portland,OR,97233,45.5079018,-122.5373088,5.0,7,1,"Tacos, Food, Food Trucks, Mexican, Restaurants"
593,msntz7uHML_0M9GSsti4ew,Yim Bento,Portland,OR,97210,45.5340689,-122.6987669,4.0,5,0,"Restaurants, Japanese, Food Stands"
594,6Ng3P3Bi8TW006xB7l2PqQ,Straight From New York Pizza,Portland,OR,97210,45.5234782,-122.6972354,4.0,192,1,"Gluten-Free, Vegan, Restaurants, Fast Food, Pizza"
595,edRSgNkzHYENtANvVuBjWQ,Espresso Works,Portland,OR,97219,45.4678834,-122.7226166,3.5,12,0,"Food, Bagels, Juice Bars & Smoothies, Coffee & Tea"
596,7PXUg_eQ4tn-xc7ARdAiXg,People's Food Co-op,Portland,OR,97202,45.5007787,-122.6449526,4.0,136,1,"Farmers Market, Restaurants, Grocery, Specialty Food, Vegetarian, Fruits & Veggies, Food, Organic Stores, Health Markets"
597,jpHBtav6gL7_5IKUiTUoCA,Sawyer's Market,Portland,OR,97206,45.4684251,-122.6019344,3.0,7,1,"Grocery, Food"
598,O9RGk7qf6JegpxqpdDDvLA,Babe's Boxed Lunches,Portland,OR,97206,45.4959385,-122.6086121,3.5,6,0,"Restaurants, Food, American (Traditional), Food Trucks"
599,wnYjzeVN9zGKKHP6NGh5hw,Starbucks,Portland,OR,97210,45.527081,-122.69871,3.5,20,0,"Food, Coffee & Tea"
600,CvB_uHuU7v4MMDSxj9NQ2Q,The Solo Club,Portland,OR,97210,45.5339381,-122.6952481,4.0,91,1,"Restaurants, Cocktail Bars, Desserts, Bars, Venues & Event Spaces, Event Planning & Services, Tapas/Small Plates, Asian Fusion, Food, Coffee & Tea, Nightlife"
601,Z98xuYd4naKzOS8pBY4Y3A,Ada's Cafe,Portland,OR,97202,45.4605303,-122.6472232,3.5,14,0,"Cafes, Food, Breakfast & Brunch, American (Traditional), Restaurants, Burgers"
602,JWf3qCoPdI7FEWNfyNbxIw,Mary's Cuisine,Portland,OR,97204,45.51983504,-122.6744658338,4.0,5,0,"Food, Vietnamese, Food Trucks, Restaurants"
603,7k8R9BqTJwOAjtcWM-c32Q,McDonald's,Portland,OR,97266,45.482003,-122.579608,1.5,42,1,"Food, Restaurants, Coffee & Tea, Burgers, Fast Food"
604,NTiQVg-4LNrGLMpyX9hCRA,Produce Row Café,Portland,OR,97214,45.5199908,-122.6636483,3.5,488,1,"Arts & Entertainment, Music Venues, Bars, Nightlife, Restaurants, Jazz & Blues, Gastropubs, American (Traditional), Burgers"
605,ykh0EvwOD5LfF2w72-e4yw,Basta,Portland,OR,97209,45.5257504,-122.6941949,3.5,180,0,"Italian, Restaurants"
606,R1RTo1t_ODOj66Ngfu8seA,Atlas Pizza,Portland,OR,97217,45.5624529,-122.6743415,3.5,64,1,"Restaurants, Food Delivery Services, Food, Salad, Pizza"
607,X7XMoonREg9mCjfCG6pA7Q,Bang Saen,Portland,OR,97205,45.5203715,-122.6809796,4.0,5,1,"Food Trucks, Food"
608,VzATMTqHi3y_ooKAOgLHXw,Del Inti,Portland,OR,97211,45.5592219,-122.6415493,4.0,78,0,"Latin American, Peruvian, Food, Restaurants"
609,mqkBQum1kCunvVV94jyqcQ,Q Burger & Fries,Portland,OR,97217,45.5773521,-122.6981205,3.5,14,0,"Burgers, Barbeque, Restaurants"
610,PcA0v6w0ocbT4I9QcmexRg,Beer Bunker,Portland,OR,97215,45.5191019922,-122.5821232796,3.5,75,1,"Nightlife, Local Flavor, Food, Restaurants, Beer, Wine & Spirits, Bars, American (New)"
611,t6r5EGcPCSXqLf4bNeaw0A,Anna's Island Cafe,Portland,OR,97217,45.5571168,-122.702709,4.0,24,1,"American (Traditional), Restaurants, Coffee & Tea, Food, Greek"
612,zEXZ8DSttE913ISYG1-7UA,Mei Sum Bakery,Portland,OR,97206,45.498948,-122.579345,4.0,75,1,"Specialty Food, Food, Bakeries"
613,qTutBN2eY81xLz3TeGWAzA,Reo's Ribs,Portland,OR,97213,45.5363652155,-122.619655,3.0,151,1,"Barbeque, Restaurants"
614,WqXwSoJdchQEcnjCwQ0q6A,Kevin & Franky's,Portland,OR,97205,45.5223033,-122.6826521,4.5,27,1,"Restaurants, Sandwiches, American (Traditional)"
615,1RoiwiDf2PFFVDGrRK4Wow,Golden Dragon Strip Club,Portland,OR,97204,45.5204466225,-122.6741343296,3.0,63,1,"Strip Clubs, Pool Halls, Chinese, Nightlife, Adult Entertainment, Restaurants"
616,BJAPav2lfNW679fI0s6KCg,Willow,Portland,OR,97214,45.5085247,-122.6549276,5.0,200,1,"Vegetarian, American (New), Vegan, Restaurants, Gluten-Free"
617,vGPmLdfjabtUO6o4lNXSzQ,Frank,Portland,OR,97239,45.496240662,-122.6705973,4.5,44,1,"Nightlife, Bars, Wine Bars, Restaurants, Tapas/Small Plates, Food, Beer, Wine & Spirits"
618,NwdJhHFT69Xyi5jyNGeS3A,Vagabond,Portland,OR,97203,45.5804667981,-122.7188689607,4.5,61,0,"Gastropubs, Restaurants, Breakfast & Brunch, Comfort Food, Tapas/Small Plates"
619,kBTa7dWZTk1kXojnXgqmKw,Black Sheep Bakery,Portland,OR,97232,45.5269078,-122.6466054,4.0,41,0,"Vegan, Restaurants, Bakeries, Food"
620,IEoxvVxtMpqHDyom4Ad6Tw,Sokongdong Tofu & BBQ,Portland,OR,97266,45.501569,-122.577452,4.0,267,1,"Barbeque, Asian Fusion, Korean, Restaurants"
621,5wMPpgHLE9YRgndr09qVVA,Republic Cafe,Portland,OR,97209,45.5249368,-122.6742641,3.0,120,1,"Restaurants, Chinese"
622,snFvbSd1jViDA9uxw2aT1w,Starbucks,Portland,OR,97219,45.452888,-122.722196,4.0,30,1,"Food, Coffee & Tea"
623,afuKr6kqfvVoS-XWthEWPw,Bol & Crust,Portland,OR,97202,45.4827802,-122.6380003,4.5,9,1,"Food Trucks, Food, Bakeries, Restaurants, Vegetarian"
624,sZA0keiME0I0IXSh_zPZGw,Juniors Cafe,Portland,OR,97214,45.510207,-122.6535187,3.5,339,1,"Breakfast & Brunch, Vegetarian, Cafes, Vegan, Restaurants"
625,rMYIAuvdRMC4Q0zkpbCq_g,Magic Beans,Portland,OR,97217,45.5908734,-122.6931698,3.0,7,0,"Vegetarian, Restaurants, Food Stands"
626,11ti5aDJJn7lsOe3TxGI5A,Red Flag,Portland,OR,97232,45.525743,-122.637166,3.5,56,0,"Breakfast & Brunch, Sandwiches, Bars, Nightlife, American (Traditional), Restaurants"
627,ODio3sDNFG1h6gbhuKFdUQ,Grön Café,Portland,OR,97211,45.579253,-122.664356,5.0,6,1,"Cannabis Dispensaries, Shopping, Specialty Food, Food, Coffee & Tea, Chocolatiers & Shops, Restaurants, Cafes"
628,5oq_n-rGK_MzIyrAWmMY1w,Coquine,Portland,OR,97215,45.5170786,-122.5924018,4.5,338,1,"Restaurants, American (New)"
629,X9sz3xeaLujW9PhsSLCQyg,Gastro Mania,Portland,OR,97209,45.5326541,-122.6924768,4.5,272,1,"Food Trucks, Sandwiches, Mediterranean, Food, Delis, Restaurants"
630,73cpL-zz69Rm87wPD1RtBA,Aroy Thai Bistro,Portland,OR,97204,45.5196329,-122.6757356,4.0,144,1,"Restaurants, Thai"
